[{
	"name": "ESTACIÓN DE SERVICIO CALAFIA  S. A. DE C. V.",
	"location": {
		"lat": 32.47641,
		"long": -116.9214
	},
	"id": "1",
	"address": "Blvd. Insurgentes No. 1910",
	"estado": "BAJA CALIFORMANIA NORTE",
	"status": true
}, {
	"name": "DIGEPE  S. A. DE C. V.",
	"location": {
		"lat": 20.37431,
		"long": -99.65054
	},
	"id": "2",
	"address": "Carretera Ixmiquilpan - Palmillas Km. 58.5",
	"estado": "HIDALGO",
	"status": true
}, {
	"name": "DIGEPE  S. A. DE C. V.",
	"location": {
		"lat": 20.37431,
		"long": -99.65054
	},
	"id": "3",
	"address": "Carretera Ixmiquilpan - Palmillas Km. 58.5",
	"estado": "HIDALGO",
	"status": true
}, {
	"name": "DÍAZ GAS  S.A. DE C.V.",
	"location": {
		"lat": 31.71932,
		"long": -106.4514
	},
	"id": "4",
	"address": "Av. Adolfo López Mateos No. 1604",
	"estado": "CHIHUAHUA",
	"status": true
}, {
	"name": "COMBU-EXPRESS  S.A. DE C.V.",
	"location": {
		"lat": 20.71424,
		"long": -103.3041
	},
	"id": "5",
	"address": "Ricardo Flores Magon No. 950",
	"estado": "JALISCO",
	"status": true
}, {
	"name": "Petromax  S.A. de C.V.",
	"location": {
		"lat": 26.03791,
		"long": -98.29951
	},
	"id": "6",
	"address": "PROL. RIO PURIFICACION # 800 ESQUINA OSCAR ALEXANDER",
	"estado": "TAMAULIPAS",
	"status": true
}, {
	"name": "ESTACIÓN RAEL  S. DE R.L. DE C.V.",
	"location": {
		"lat": 32.51347,
		"long": -117.0714
	},
	"id": "7",
	"address": "Calle Manuel Gutiérrez Nájera No.3102",
	"estado": "BAJA CALIFORMANIA NORTE",
	"status": true
}, {
	"name": "MULTISERVICIOS LA PILARICA  S.A. DE C.V.",
	"location": {
		"lat": 25.75558,
		"long": -108.9685
	},
	"id": "8",
	"address": "Carretera al 20 De Noviembre No. 3005",
	"estado": "SINALOA",
	"status": true
}, {
	"name": "Petromax S.A. de C.V.",
	"location": {
		"lat": 25.7718,
		"long": -100.292
	},
	"id": "9",
	"address": "Carr. a Colombia #400",
	"estado": "NUEVO LEÓN",
	"status": true
}, {
	"name": "ADMINISTRADORA PROFESIONAL DE GASOLINERAS DE MÉXICO  S. DE R.L. DE C.V.",
	"location": {
		"lat": 31.86558,
		"long": -116.6079
	},
	"id": "10",
	"address": "Av. Rayón No.876",
	"estado": "BAJA CALIFORMANIA NORTE",
	"status": true
}, {
	"name": "ADMINISTRADORA PROFESIONAL DE GASOLINERAS DE MÉXICO  S. DE R.L. DE C.V.",
	"location": {
		"lat": 31.86558,
		"long": -116.6079
	},
	"id": "11",
	"address": "Av. Rayón No.876",
	"estado": "BAJA CALIFORMANIA NORTE",
	"status": true
}, {
	"name": "INMNOBILIARIA ESCOGAS  S. A. DE C. V.",
	"location": {
		"lat": 32.31202,
		"long": -117.0457
	},
	"id": "12",
	"address": "Carretera libre Tijuana - Ensenada No. 3109",
	"estado": "BAJA CALIFORMANIA NORTE",
	"status": true
}, {
	"name": "Petromax S.A. de C.V.",
	"location": {
		"lat": 25.6556,
		"long": -100.1838
	},
	"id": "13",
	"address": "Av. Pablo Livas #101",
	"estado": "NUEVO LEÓN",
	"status": true
}, {
	"name": "AUTOSERVICIO BERLANGA S.A. DE C.V.",
	"location": {
		"lat": 26.92563,
		"long": -101.419
	},
	"id": "14",
	"address": "Blvd. Harold R. Pape No.2103-A",
	"estado": "COAHUILA",
	"status": true
}, {
	"name": "Petromax  S.A. de C.V.",
	"location": {
		"lat": 25.83848,
		"long": -97.44489
	},
	"id": "15",
	"address": "AV. LAURO VILLAR # 7110 ESQ. LOS CEDROS",
	"estado": "TAMAULIPAS",
	"status": true
}, {
	"name": "GRUPO OCTANO  S.A. DE C.V",
	"location": {
		"lat": 21.47381,
		"long": -105.1948
	},
	"id": "16",
	"address": "Carretera San Blas-Santa Cruz km. 13",
	"estado": "NAYARIT",
	"status": true
}, {
	"name": "CÍRCULO DOS  S. A. DE C. V.",
	"location": {
		"lat": 32.31412,
		"long": -117.0137
	},
	"id": "17",
	"address": "Blvd. Sánchez Taboada No. 2685",
	"estado": "BAJA CALIFORMANIA NORTE",
	"status": true
}, {
	"name": "Servicio Sevilla  S.A. de C.V.",
	"location": {
		"lat": 19.351,
		"long": -99.11507
	},
	"id": "18",
	"address": "Av. Gustavo Baz  S/N",
	"estado": "CIUDAD DE MÈXICO",
	"status": true
}, {
	"name": "Petromax S.A. de C.V.",
	"location": {
		"lat": 25.6788,
		"long": -100.2365
	},
	"id": "19",
	"address": "Av. Benito Juarez #1601",
	"estado": "NUEVO LEÓN",
	"status": true
}, {
	"name": "GASOLINERA HUITEPEC  S.A. DE C.V.",
	"location": {
		"lat": 16.7317,
		"long": -92.65416
	},
	"id": "20",
	"address": "Carretera Internacional Km. 1170 S/N",
	"estado": "CHIAPAS",
	"status": true
}, {
	"name": "PETROMAX  S.A. DE C.V.",
	"location": {
		"lat": 26.01398,
		"long": -98.204
	},
	"id": "21",
	"address": "Carretera a Matamoros Esq. Fracc. Villareal",
	"estado": "TAMAULIPAS",
	"status": true
}, {
	"name": "SUPER SERVICIO MIVASA  S. A. DE C. V.",
	"location": {
		"lat": 24.02971,
		"long": -104.6218
	},
	"id": "22",
	"address": "Prol. Pino Suárez 126",
	"estado": "DURANGO",
	"status": true
}, {
	"name": "SERVICIO SIERRA DE ARTEAGA S.A. DE C.V.",
	"location": {
		"lat": 25.57388,
		"long": -100.9055
	},
	"id": "23",
	"address": "Carr. Saltillo-Monterrey Km17.722",
	"estado": "COAHUILA",
	"status": true
}, {
	"name": "COMBUSTIBLES Y LUBRICANTES ATENAS S.A. DE C.V.",
	"location": {
		"lat": 28.73117,
		"long": -106.1065
	},
	"id": "24",
	"address": "Nogales 4900",
	"estado": "CHIHUAHUA",
	"status": true
}, {
	"name": "GRUPO OCTANO  S.A. DE C.V",
	"location": {
		"lat": 19.77838,
		"long": -103.9754
	},
	"id": "25",
	"address": "Entronque Carretero Guzmán Autlan No. 50",
	"estado": "JALISCO",
	"status": true
}, {
	"name": "BECKTROP OPERADORA S.A. DE C.V.",
	"location": {
		"lat": 32.45099,
		"long": -117.0248
	},
	"id": "26",
	"address": "Carretera Tijuana-Rosarito No. 9311-1B",
	"estado": "BAJA CALIFORMANIA NORTE",
	"status": true
}, {
	"name": "Petromax S.A. de C.V.",
	"location": {
		"lat": 25.73174,
		"long": -100.2726
	},
	"id": "27",
	"address": "Av. Diego Díaz de Berlanga #119",
	"estado": "NUEVO LEÓN",
	"status": true
}, {
	"name": "ESTACIÓN LA JOYA  S. A. DE C. V.",
	"location": {
		"lat": 32.53171,
		"long": -117.0466
	},
	"id": "28",
	"address": "Salvador Díaz Mirón No. 7321",
	"estado": "BAJA CALIFORMANIA NORTE",
	"status": true
}, {
	"name": "Petromax S.A. de C.V.",
	"location": {
		"lat": 26.04473,
		"long": -98.31485
	},
	"id": "29",
	"address": "Carr. Monterrey-Saltillo #301",
	"estado": "TAMAULIPAS",
	"status": true
}, {
	"name": "ESTACIÓN PUERTA DEL SUR  S. A. DE C. V.",
	"location": {
		"lat": 32.30376,
		"long": -117.0122
	},
	"id": "30",
	"address": "Bl. Cuauhtémoc Sur No. 3658",
	"estado": "BAJA CALIFORMANIA NORTE",
	"status": true
}, {
	"name": "Petromax S.A. de C.V.",
	"location": {
		"lat": 25.66024,
		"long": -100.1467
	},
	"id": "31",
	"address": "Carretera Reynosa #251",
	"estado": "NUEVO LEÓN",
	"status": true
}, {
	"name": "Petromax S.A. de C.V.",
	"location": {
		"lat": 25.44159,
		"long": -100.9276
	},
	"id": "32",
	"address": "Blvd. Jesus Valdes Sanchez #1541",
	"estado": "COAHUILA",
	"status": true
}, {
	"name": "PETROMAX  S.A. de C.V",
	"location": {
		"lat": 26.06286,
		"long": -98.32704
	},
	"id": "33",
	"address": "Av. Central  No. 215-B y Callejón San Juan  Esquina Mil Cumbres",
	"estado": "TAMAULIPAS",
	"status": true
}, {
	"name": "RAMCAL S.A. DE C.V.",
	"location": {
		"lat": 19.03612,
		"long": -104.211
	},
	"id": "34",
	"address": "Carretera Federal Manzanillo Colima Km 307+500",
	"estado": "COLIMA",
	"status": true
}, {
	"name": "Gasomac S.A. de C.V.",
	"location": {
		"lat": 19.1923,
		"long": -99.08177
	},
	"id": "35",
	"address": "Calzada de Tlalpan No. 2803",
	"estado": "CIUDAD DE MÈXICO",
	"status": true
}, {
	"name": "Autoconsumo Los Pinos  S.A de C.V.",
	"location": {
		"lat": 19.18079,
		"long": -99.09532
	},
	"id": "36",
	"address": "Avenida Periférico Sur número 5550",
	"estado": "CIUDAD DE MÈXICO",
	"status": true
}, {
	"name": "SERVICIOS DEL VALLE DEL FUERTE  S.A. DE C.V.",
	"location": {
		"lat": 25.46223,
		"long": -109.0098
	},
	"id": "37",
	"address": "S. Degollado No. 1799 Sur",
	"estado": "SINALOA",
	"status": true
}, {
	"name": "SERVICIOS ENERGÉTICOS PLAZA INDUSTRIAL S.A. DE C.V.",
	"location": {
		"lat": 25.25637,
		"long": -101.1172
	},
	"id": "38",
	"address": "Carretera Estatal a Gral. Cepeda No. 2731",
	"estado": "COAHUILA",
	"status": true
}, {
	"name": "SERVICIO GALLEGOS E HIJOS S.A. DE C.V.",
	"location": {
		"lat": 22.1233,
		"long": -102.2839
	},
	"id": "39",
	"address": "Carretera Aguascalientes-Zacatecas  km.28.5",
	"estado": "AGUASCALIENTES",
	"status": true
}, {
	"name": "OLEUM GAS S.A. DE C.V.",
	"location": {
		"lat": 16.73397,
		"long": -93.09299
	},
	"id": "40",
	"address": "Libramiento Sur Oriente No. 3430",
	"estado": "CHIAPAS",
	"status": true
}, {
	"name": "SERVICIOS DEL VALLE DEL FUERTE  S.A. DE C.V.",
	"location": {
		"lat": 25.57577,
		"long": -109.1746
	},
	"id": "41",
	"address": "Ignacio Zaragoza y Justo Sierra No. 24",
	"estado": "SINALOA",
	"status": true
}, {
	"name": "Gasolinería Cid  S.A. de C.V.",
	"location": {
		"lat": 19.38253,
		"long": -99.2147
	},
	"id": "42",
	"address": "Carr. Villa del Carbón No. 332",
	"estado": "CIUDAD DE MÈXICO",
	"status": true
}, {
	"name": "Gasolinería Perseo  S.A. de C.V.",
	"location": {
		"lat": 19.4459,
		"long": -99.06571
	},
	"id": "43",
	"address": "Carretera 57 Km 16+800",
	"estado": "CIUDAD DE MÈXICO",
	"status": true
}, {
	"name": "MULTISERVICIOS LA PILARICA S.A. DE C.V.",
	"location": {
		"lat": 25.77082,
		"long": -109.0132
	},
	"id": "44",
	"address": "Blvd. Pedro Anaya 805 Pte.",
	"estado": "SINALOA",
	"status": true
}, {
	"name": "Petromax  S.A. de C.V.",
	"location": {
		"lat": 26.06003,
		"long": -98.35567
	},
	"id": "45",
	"address": "BLVD. HIDALGO No. 422 ESQ. CALLE SAN JACINTO",
	"estado": "TAMAULIPAS",
	"status": true
}, {
	"name": "Petromax  S.A. de C.V.",
	"location": {
		"lat": 25.78033,
		"long": -100.1757
	},
	"id": "46",
	"address": "Carr. Miguel Aleman No. 1000",
	"estado": "NUEVO LEÓN",
	"status": true
}, {
	"name": "PETROMAX  S.A. DE C.V.",
	"location": {
		"lat": 20.73133,
		"long": -103.4517
	},
	"id": "47",
	"address": "CARRETERA A BASE AEREA MILITAR NUM. 3353.",
	"estado": "JALISCO",
	"status": true
}, {
	"name": "SERVICIO AVENIDA  S.A. DE C.V.",
	"location": {
		"lat": 21.89677,
		"long": -102.3052
	},
	"id": "48",
	"address": "Avenida Convención 1914 Norte No.1902",
	"estado": "AGUASCALIENTES",
	"status": true
}, {
	"name": "ESTACIÓN KILOMETRO 33  S. DE R.L. DE C.V.",
	"location": {
		"lat": 21.09864,
		"long": -101.6678
	},
	"id": "49",
	"address": "Blvd. Juan José Torres Landa No.1145",
	"estado": "GUANAJUATO",
	"status": true
}, {
	"name": "PETROMAX  S.A. DE C.V.",
	"location": {
		"lat": 32.63511,
		"long": -115.3865
	},
	"id": "50",
	"address": "AV. MISION DE SAN DIEGO Y CALLE NOVENA #3499",
	"estado": "BAJA CALIFORMANIA NORTE",
	"status": true
}, {
	"name": "ESTACIÓN HIPODROMO  S.A. DE C.V.",
	"location": {
		"lat": 32.49962,
		"long": -116.7159
	},
	"id": "51",
	"address": "Km 144+000 De La Carretera Tecate-Tijuana",
	"estado": "BAJA CALIFORMANIA NORTE",
	"status": true
}, {
	"name": "GRUPO GOCALVI  S.A. DE C.V.",
	"location": {
		"lat": 31.56458,
		"long": -106.3974
	},
	"id": "52",
	"address": "Antonio Peralta No. 4325",
	"estado": "CHIHUAHUA",
	"status": true
}, {
	"name": "Socombumex  S.A. de C.V.",
	"location": {
		"lat": 19.04401,
		"long": -104.1716
	},
	"id": "53",
	"address": "Tiburón 1",
	"estado": "COLIMA",
	"status": true
}, {
	"name": "Gasolinería Segovia S.A. de C.V.",
	"location": {
		"lat": 19.36274,
		"long": -98.59412
	},
	"id": "54",
	"address": "Avenida de las Bombas s/n",
	"estado": "PUEBLA",
	"status": true
}, {
	"name": "SERVICIO LOS OLIVOS  S.A. DE C.V.",
	"location": {
		"lat": 31.78393,
		"long": -116.5918
	},
	"id": "55",
	"address": "Carretera Transpeninsular No. 101",
	"estado": "BAJA CALIFORMANIA NORTE",
	"status": true
}, {
	"name": "SERVICIO LOS OLIVOS  S.A. DE C.V.",
	"location": {
		"lat": 31.78393,
		"long": -116.5918
	},
	"id": "56",
	"address": "Carretera Transpeninsular No. 101",
	"estado": "BAJA CALIFORMANIA NORTE",
	"status": true
}, {
	"name": "MULTISERVICIOS LA PILARICA S.A. DE C.V.",
	"location": {
		"lat": 25.80153,
		"long": -108.9855
	},
	"id": "57",
	"address": "Blvd. Juan De Dios Batiz No. 346",
	"estado": "SINALOA",
	"status": true
}, {
	"name": "GRUPO OCTANO  S.A. DE C.V",
	"location": {
		"lat": 19.79189,
		"long": -100.9707
	},
	"id": "58",
	"address": "Av. Adolfo López Mateos No. 57",
	"estado": "MICHOACAN",
	"status": true
}, {
	"name": "Petromax S.A. de C.V.",
	"location": {
		"lat": 25.82597,
		"long": -100.296
	},
	"id": "59",
	"address": "Evaristo Caballero #3299",
	"estado": "NUEVO LEÓN",
	"status": true
}, {
	"name": "GRUPO OCTANO  S.A. DE C.V.",
	"location": {
		"lat": 21.52238,
		"long": -104.8869
	},
	"id": "60",
	"address": "Av. México No. 788",
	"estado": "NAYARIT",
	"status": true
}, {
	"name": "Inmobiliaria Corredor Tultitlán  S.A. de C.V.",
	"location": {
		"lat": 19.4043,
		"long": -99.06298
	},
	"id": "61",
	"address": "Av. Recursos Hidráulicos No. 240",
	"estado": "CIUDAD DE MÈXICO",
	"status": true
}, {
	"name": "PETROMAX  S.A. DE C.V.",
	"location": {
		"lat": 32.63511,
		"long": -115.3865
	},
	"id": "62",
	"address": "CALZ. HECTOR TERAN #1100",
	"estado": "BAJA CALIFORMANIA NORTE",
	"status": true
}, {
	"name": "PETROMAX  S.A. DE C.V.",
	"location": {
		"lat": 19.63611,
		"long": -99.10699
	},
	"id": "63",
	"address": "VIA JOSE LOPEZ PORTILLO KM. 26.50 S/N ESQ. CANOSAS",
	"estado": "ESTADO DE MÉXICO",
	"status": true
}, {
	"name": "GRUPO OCTANO  S.A. DE C.V",
	"location": {
		"lat": 21.47022,
		"long": -104.8488
	},
	"id": "64",
	"address": "Avenida Tecnológico No. 4728",
	"estado": "NAYARIT",
	"status": true
}, {
	"name": "PETROMAX  S.A. DE C.V.",
	"location": {
		"lat": 25.73638,
		"long": -100.2083
	},
	"id": "65",
	"address": "Carr. Miguel Alemán No. 610",
	"estado": "NUEVO LEÓN",
	"status": true
}, {
	"name": "CRUCERO LAS GOLONDRINAS  S. A. DE C. V.",
	"location": {
		"lat": 19.14032,
		"long": -103.7719
	},
	"id": "66",
	"address": "KM. 11.2 Carretera Colima - Manzanillo",
	"estado": "COLIMA",
	"status": true
}, {
	"name": "BECKTROP OPERADORA S.A. DE C.V.",
	"location": {
		"lat": 32.49118,
		"long": -116.9532
	},
	"id": "67",
	"address": "Blvd. Gustavo Díaz Ordaz No. 15260",
	"estado": "BAJA CALIFORMANIA NORTE",
	"status": true
}, {
	"name": "Petromax S.A. de C.V.",
	"location": {
		"lat": 25.70133,
		"long": -100.1308
	},
	"id": "68",
	"address": "Carr. Apodaca-Benito Juarez #1101",
	"estado": "NUEVO LEÓN",
	"status": true
}, {
	"name": "GASER HIDALGO  S. A. DE C. V.",
	"location": {
		"lat": 32.511,
		"long": -116.9662
	},
	"id": "69",
	"address": "C. Via rápida poniente No. 14329",
	"estado": "BAJA CALIFORMANIA NORTE",
	"status": true
}, {
	"name": "GRUPO OCTANO  S.A. DE C.V",
	"location": {
		"lat": 21.54235,
		"long": -105.2823
	},
	"id": "70",
	"address": "Juárez No. 13 Ote. C.P. 63740",
	"estado": "NAYARIT",
	"status": true
}, {
	"name": "ESTACIÓN DE SERVICIO AUTOMOTRÍZ DEL NORTE S.A. DE C.V.",
	"location": {
		"lat": 21.91586,
		"long": -102.2927
	},
	"id": "71",
	"address": "Av. Aguascalientes No.782",
	"estado": "AGUASCALIENTES",
	"status": true
}, {
	"name": "SERVICIO CIBOLA  S.A. DE C.V.",
	"location": {
		"lat": 29.30928,
		"long": -100.935
	},
	"id": "72",
	"address": "H. Colegio Militar No.490",
	"estado": "COAHUILA",
	"status": true
}, {
	"name": "SERVICIO CIBOLA  S.A. DE C.V.",
	"location": {
		"lat": 29.30928,
		"long": -100.935
	},
	"id": "73",
	"address": "H. Colegio Militar No.490",
	"estado": "COAHUILA",
	"status": true
}, {
	"name": "PETROMAX  S.A. DE C.V.",
	"location": {
		"lat": 25.53428,
		"long": -103.3227
	},
	"id": "74",
	"address": "BLVD. TORREON-MATAMOROS #9100",
	"estado": "COAHUILA",
	"status": true
}, {
	"name": "MULTISERVICIOS SIGAS  S. A. DE C. V.",
	"location": {
		"lat": 22.14956,
		"long": -102.4128
	},
	"id": "75",
	"address": "Emiliano Zapata No. 505",
	"estado": "AGUASCALIENTES",
	"status": true
}, {
	"name": "SERVICIOS DEL VALLE DEL FUERTE  S.A. DE C.V.",
	"location": {
		"lat": 25.49169,
		"long": -108.5931
	},
	"id": "76",
	"address": "Blvd. Solidaridad No. 4731 Sur",
	"estado": "SINALOA",
	"status": true
}, {
	"name": "Petromax  S.A. de C.V.",
	"location": {
		"lat": 26.04898,
		"long": -98.38615
	},
	"id": "77",
	"address": "CARRETERA REYNOSA- MONTERREY KM. 203",
	"estado": "TAMAULIPAS",
	"status": true
}, {
	"name": "Servicio Vega Atizapán  S.A. de C.V.",
	"location": {
		"lat": 19.3329,
		"long": -99.15026
	},
	"id": "78",
	"address": "Boulevard Adolfo Ruíz Cortines No. 7-A",
	"estado": "CIUDAD DE MÈXICO",
	"status": true
}, {
	"name": "ESTACIÓN RAEL S.A DE R.L. DE C.V.",
	"location": {
		"lat": 32.30174,
		"long": -116.5838
	},
	"id": "79",
	"address": "Blvd. Díaz Ordaz No.1460",
	"estado": "BAJA CALIFORMANIA NORTE",
	"status": true
}, {
	"name": "Petromax S.A. de C.V.",
	"location": {
		"lat": 25.72341,
		"long": -100.1911
	},
	"id": "80",
	"address": "Av. México #100",
	"estado": "NUEVO LEÓN",
	"status": true
}, {
	"name": "ESTACIÓN RAMOS  S.A. DE C.V.",
	"location": {
		"lat": 25.52653,
		"long": -100.9409
	},
	"id": "81",
	"address": "Blvd. Gustavo Díaz Ordaz No.2000",
	"estado": "COAHUILA",
	"status": true
}, {
	"name": "ESTACIÓN DISTRITO DOCE  S. DE R.L. DE C.V.",
	"location": {
		"lat": 21.12049,
		"long": -101.6698
	},
	"id": "82",
	"address": "Blvd. Adolfo López Mateos No.902",
	"estado": "GUANAJUATO",
	"status": true
}, {
	"name": "GRUPO OCTANO  S.A. DE C.V.",
	"location": {
		"lat": 19.90165,
		"long": -100.7926
	},
	"id": "83",
	"address": "Autopista México Guadalajara Lado Sur Km 202+650 s/n",
	"estado": "MICHOACAN",
	"status": true
}, {
	"name": "Petromax S.A. de C.V.",
	"location": {
		"lat": 25.64485,
		"long": -100.17
	},
	"id": "84",
	"address": "Av. Eloy Cavazos S/N",
	"estado": "NUEVO LEÓN",
	"status": true
}, {
	"name": "PETROLÍFEROS LA TERRITORIAL  S. DE R.L. DE C.V.",
	"location": {
		"lat": 31.27447,
		"long": -110.9299
	},
	"id": "85",
	"address": "Av. De Los Nogales No.392",
	"estado": "SONORA",
	"status": true
}, {
	"name": "PETROLÍFEROS LA TERRITORIAL  S. DE R.L. DE C.V.",
	"location": {
		"lat": 31.27447,
		"long": -110.9299
	},
	"id": "86",
	"address": "Av. De Los Nogales No.392",
	"estado": "SONORA",
	"status": true
}, {
	"name": "Petromax S.A. de C.V.",
	"location": {
		"lat": 25.67361,
		"long": -100.3681
	},
	"id": "87",
	"address": "Av. San Pedro No100",
	"estado": "NUEVO LEÓN",
	"status": true
}, {
	"name": "Petromax  S.A. de C.V.",
	"location": {
		"lat": 25.71754,
		"long": -100.1686
	},
	"id": "88",
	"address": "Gaspar Castaño No. 1000",
	"estado": "NUEVO LEÓN",
	"status": true
}, {
	"name": "SERVICIO DEL CENTRO HIDALGO  S.A. DE C.V.",
	"location": {
		"lat": 20,
		"long": -101
	},
	"id": "89",
	"address": "Calz. Miguel Hidalgo No. 110",
	"estado": "MICHOACAN",
	"status": true
}, {
	"name": "ESTACIÓN LINDAVISTA  S. A. DE C. V.",
	"location": {
		"lat": 32.31585,
		"long": -117.0337
	},
	"id": "90",
	"address": "Av. Mar kara No. 169 y segunda",
	"estado": "BAJA CALIFORMANIA NORTE",
	"status": true
}, {
	"name": "AMC COMBUSTIBLES Y LUBRICANTES  S.A. DE C.V.",
	"location": {
		"lat": 26.91436,
		"long": -101.4197
	},
	"id": "91",
	"address": "Matamoros No. 833",
	"estado": "COAHUILA",
	"status": true
}, {
	"name": "SERVICIO RAMA  S.A. DE C.V.",
	"location": {
		"lat": 28.70418,
		"long": -100.5449
	},
	"id": "92",
	"address": "Carretera a Cd.Acuña Km. 2",
	"estado": "COAHUILA",
	"status": true
}, {
	"name": "SERVICIO RAMA  S.A. DE C.V.",
	"location": {
		"lat": 28.70418,
		"long": -100.5449
	},
	"id": "93",
	"address": "Carretera a Cd.Acuña Km. 2",
	"estado": "COAHUILA",
	"status": true
}, {
	"name": "Petromax S.A. de C.V.",
	"location": {
		"lat": 25.7718,
		"long": -100.292
	},
	"id": "94",
	"address": "Carretera a Colombia No. 3100",
	"estado": "NUEVO LEÓN",
	"status": true
}, {
	"name": "Servicio Ravello  S.A. de C.V.",
	"location": {
		"lat": 32.49903,
		"long": -116.9166
	},
	"id": "95",
	"address": "C. Punta El Diablo No. 19452",
	"estado": "BAJA CALIFORMANIA NORTE",
	"status": true
}, {
	"name": "ADMINISTRADORA PROFESIONAL DE GASOLINERAS DE MÉXICO  S. DE R.L. DE C.V.",
	"location": {
		"lat": 32.6373,
		"long": -115.4009
	},
	"id": "96",
	"address": "Calzada Presidente Venustiano Carranza No.1500",
	"estado": "BAJA CALIFORMANIA NORTE",
	"status": true
}, {
	"name": "Petromax  S.A. de C.V.",
	"location": {
		"lat": 28.65133,
		"long": -106.0692
	},
	"id": "97",
	"address": "Prol. Carlos Pacheco No. 701",
	"estado": "CHIHUAHUA",
	"status": true
}, {
	"name": "INMOBILIARIA ANADECA  S.A. DE C.V.",
	"location": {
		"lat": 32.30489,
		"long": -117.0713
	},
	"id": "98",
	"address": "Paseo De Tijuana No.402",
	"status": false
}, {
	"name": "SERVICIOS DEL VALLE DEL FUERTE  S.A. DE C.V.",
	"location": {
		"lat": 25.48379,
		"long": -109.0102
	},
	"id": "99",
	"address": "Blvd. Jiquilpan No.1699",
	"estado": "SINALOA",
	"status": true
}, {
	"name": "MARA ESTACIÓN DE SERVICIOS  S.A. DE C.V.",
	"location": {
		"lat": 21.89221,
		"long": -102.2635
	},
	"id": "100",
	"address": "Avenida Aguascalientes Ote. No. 2074",
	"estado": "AGUASCALIENTES",
	"status": true
}, {
	"name": "GRUPO OCTANO  S.A. DE C.V",
	"location": {
		"lat": 21.49445,
		"long": -104.8967
	},
	"id": "101",
	"address": "Boulevard Tepic Xalisco No. 142",
	"estado": "NAYARIT",
	"status": true
}, {
	"name": "SERVICIO OROZCO S.A. DE C.V.",
	"location": {
		"lat": 23.82153,
		"long": -99.1232
	},
	"id": "102",
	"address": "Carretera Nacional Victoria –Monterrey Km 9.5 904",
	"estado": "TAMAULIPAS",
	"status": true
}, {
	"name": "SERVICIO PUERTA DE HIERRO S.A. DE C.V.",
	"location": {
		"lat": 19.25798,
		"long": -103.7087
	},
	"id": "103",
	"address": "Av. Ignacio Sandoval No. 1555",
	"estado": "COLIMA",
	"status": true
}, {
	"name": "Gasolinería Real Madeira  S.A. de C.V.",
	"location": {
		"lat": 19.34435,
		"long": -99.01153
	},
	"id": "104",
	"address": "Av. Central  Lt. 1 Mz-A s/n",
	"estado": "CIUDAD DE MÈXICO",
	"status": true
}, {
	"name": "Petromax S.A. de C.V.",
	"location": {
		"lat": 25.43492,
		"long": -100.9133
	},
	"id": "105",
	"address": "Blvd. Centenario de Torreón No. 7025",
	"estado": "COAHUILA",
	"status": true
}, {
	"name": "Petromax  S.A. de C.V.",
	"location": {
		"lat": 26.06801,
		"long": -98.31658
	},
	"id": "106",
	"address": "Décima Esquina con Blvd. Las Fuentes No. 115",
	"estado": "TAMAULIPAS",
	"status": true
}, {
	"name": "Inmobiliaria Socor  S.A. de C.V.",
	"location": {
		"lat": 19.43019,
		"long": -99.08215
	},
	"id": "107",
	"address": "Carretera Nacional Visitación N° 45",
	"estado": "CIUDAD DE MÈXICO",
	"status": true
}, {
	"name": "Grupo Empresarial Cachanilla  S.A. de C.V.",
	"location": {
		"lat": 32.59509,
		"long": -115.5029
	},
	"id": "108",
	"address": "Calz. Manuel Gómez Morin y Calle de los Portales",
	"estado": "BAJA CALIFORMANIA NORTE",
	"status": true
}, {
	"name": "Gasolinería Itálica  S.A. de C.V.",
	"location": {
		"lat": 19.31566,
		"long": -99.1057
	},
	"id": "109",
	"address": "Avenida Valle Escondido No. 21.",
	"estado": "CIUDAD DE MÈXICO",
	"status": true
}, {
	"name": "Súper Servicio Cumbre  S.A. de C.V.",
	"location": {
		"lat": 18.5416,
		"long": -99.12521
	},
	"id": "110",
	"address": "Autopista México - Acapulco   Lado A km 92.600",
	"estado": "MORELOS",
	"status": true
}, {
	"name": "ESTACIONES DE SERVICIO CAMINOS DE GUANAJUATO  S. A. DE C. V.",
	"location": {
		"lat": 21.16527,
		"long": -100.9016
	},
	"id": "111",
	"address": "Carr. Dolores Hidalgo - San Luis de la Paz Km. 5",
	"estado": "GUANAJUATO",
	"status": true
}, {
	"name": "PETROMAX  S.A. DE C.V.",
	"location": {
		"lat": 25.77209,
		"long": -100.3886
	},
	"id": "112",
	"address": "Av. Luis Donaldo Colosio #100",
	"estado": "NUEVO LEÓN",
	"status": true
}, {
	"name": "Petromax S.A. de C.V.",
	"location": {
		"lat": 25.71587,
		"long": -100.2402
	},
	"id": "113",
	"address": "Av. Juan Montemayor #300",
	"estado": "NUEVO LEÓN",
	"status": true
}, {
	"name": "PETROMAX  S.A. DE C.V.",
	"location": {
		"lat": 25.28439,
		"long": -100.0301
	},
	"id": "114",
	"address": "Carretera Nacional S/N esquina Camino a las Boquilla",
	"estado": "NUEVO LEÓN",
	"status": true
}, {
	"name": "PETROLÍFEROS LA TERRITORIAL  S. DE R.L. DE C.V.",
	"location": {
		"lat": 31.28507,
		"long": -110.9418
	},
	"id": "115",
	"address": "Blvd. Luis Donaldo Colosio No.3203",
	"estado": "SONORA",
	"status": true
}, {
	"name": "PETROLÍFEROS LA TERRITORIAL  S. DE R.L. DE C.V.",
	"location": {
		"lat": 31.28507,
		"long": -110.9418
	},
	"id": "116",
	"address": "Blvd. Luis Donaldo Colosio No.3203",
	"estado": "SONORA",
	"status": true
}, {
	"name": "Petromax  S.A. de C.V.",
	"location": {
		"lat": 26.04591,
		"long": -98.39243
	},
	"id": "117",
	"address": "Carr. Mty. Rey. Km. 202.5 Esquina con Privada de las Bugambilias",
	"estado": "TAMAULIPAS",
	"status": true
}, {
	"name": "Petoromax S.A. de C.V.",
	"location": {
		"lat": 25.48258,
		"long": -100.9814
	},
	"id": "118",
	"address": "Blvd. Isidoro López Zertuche No. 5950",
	"estado": "COAHUILA",
	"status": true
}, {
	"name": "Petromax S.A. de C.V.",
	"location": {
		"lat": 25.71871,
		"long": -100.2885
	},
	"id": "119",
	"address": "Av. Nogalar #305 Sur Interior 1",
	"estado": "NUEVO LEÓN",
	"status": true
}, {
	"name": "Inmobiliaria Ravs  S.A. de C.V.",
	"location": {
		"lat": 19.2229,
		"long": -99.04548
	},
	"id": "120",
	"address": "Del circuito de frutas y verduras Manzana 11 Lote 11",
	"estado": "CIUDAD DE MÈXICO",
	"status": true
}, {
	"name": "GASOLINA Y LUBRICANTES MALPASO S.A. DE C.V.",
	"location": {
		"lat": 17.18731,
		"long": -93.56606
	},
	"id": "121",
	"address": "Carretera Tecpatan Raudales Malpaso km 4.23 s/n",
	"estado": "CHIAPAS",
	"status": true
}, {
	"name": "SERVICIO EFIGAS  S. DE R.L. DE C.V.",
	"location": {
		"lat": 32.31437,
		"long": -117.0029
	},
	"id": "122",
	"address": "Av. Defensores de Baja California No.10820 y Esquina con Calle Santiago de la Cruz",
	"estado": "BAJA CALIFORMANIA NORTE",
	"status": true
}, {
	"name": "SERVICIOS ENERGÉTICOS DEL PACIFICO S.A DE C.V.",
	"location": {
		"lat": 19.11453,
		"long": -104.3236
	},
	"id": "123",
	"address": "Av. Elías Zamora Verduzco 2128",
	"estado": "COLIMA",
	"status": true
}, {
	"name": "Gasolinería México Ajusco 1 S.A. de C.V.",
	"location": {
		"lat": 19.13442,
		"long": -99.13449
	},
	"id": "124",
	"address": "Avenida Hidalgo No. 83",
	"estado": "CIUDAD DE MÈXICO",
	"status": true
}, {
	"name": "GRUPO OCTANO  S.A. DE C.V.",
	"location": {
		"lat": 20.65408,
		"long": -105.2224
	},
	"id": "125",
	"address": "Av. Priciliano Sánchez No. 755",
	"estado": "JALISCO",
	"status": true
}, {
	"name": "GRUPO OCTANO  S.A. DE C.V",
	"location": {
		"lat": 20.20203,
		"long": -101.1593
	},
	"id": "126",
	"address": "Carretera Morelia Salamanca Km 62 s/n",
	"estado": "GUANAJUATO",
	"status": true
}, {
	"name": "Grupo Empresarial Cachanilla  S.A. de C.V.",
	"location": {
		"lat": 32.47071,
		"long": -114.7833
	},
	"id": "127",
	"address": "Av. Venustiano Carranza y Calle 4ta No.400",
	"estado": "SONORA",
	"status": true
}, {
	"name": "Petromax S.A. de C.V.",
	"location": {
		"lat": 25.3887,
		"long": -100.9903
	},
	"id": "128",
	"address": "Periferico Luis Echeverría #2502",
	"estado": "COAHUILA",
	"status": true
}, {
	"name": "PETROMAX  S.A. DE C.V.",
	"location": {
		"lat": 25.55804,
		"long": -103.4572
	},
	"id": "129",
	"address": "Av. Tamazula #375 Esq. Piedras Negras",
	"estado": "COAHUILA",
	"status": true
}, {
	"name": "ESTACIÓN DE SERVICIO TEZONTEPEC S.A. DE C.V.",
	"location": {
		"lat": 20.19257,
		"long": -99.26816
	},
	"id": "130",
	"address": "Insurgentes No. 45",
	"estado": "HIDALGO",
	"status": true
}, {
	"name": "ESTACIÓN RAEL  S. DE R.L. DE C.V.",
	"location": {
		"lat": 32.48336,
		"long": -116.9315
	},
	"id": "131",
	"address": "Blvd. Vía Rápida Oriente No.16870",
	"estado": "BAJA CALIFORMANIA NORTE",
	"status": true
}, {
	"name": "Estación de Servicio Córdoba S.A. de C.V.",
	"location": {
		"lat": 18.54436,
		"long": -99.12436
	},
	"id": "132",
	"address": "Calle 10 de Abril No. 711",
	"estado": "MORELOS",
	"status": true
}, {
	"name": "BECKTROP OPERADORA S.A. DE C.V.",
	"location": {
		"lat": 32.51595,
		"long": -117.0217
	},
	"id": "133",
	"address": "Cuauhtémoc sur poniente No. 2834",
	"estado": "BAJA CALIFORMANIA NORTE",
	"status": true
}, {
	"name": "GRUPO EMPRESARIAL CACHANILLA  S.A. DE C.V.",
	"location": {
		"lat": 32.60469,
		"long": -115.4288
	},
	"id": "134",
	"address": "Calzada Gustavo Vildosola Castro No.1901",
	"estado": "BAJA CALIFORMANIA NORTE",
	"status": true
}, {
	"name": "GRUPO GOCALVI  S.A. DE C.V.",
	"location": {
		"lat": 31.77224,
		"long": -106.5243
	},
	"id": "135",
	"address": "Bernardo Norzagaray No. 8211",
	"estado": "CHIHUAHUA",
	"status": true
}, {
	"name": "GRUPO OCTANO  S.A. DE C.V.",
	"location": {
		"lat": 20.64046,
		"long": -103.417
	},
	"id": "136",
	"address": "Mariano Otero No. 3582",
	"estado": "JALISCO",
	"status": true
}, {
	"name": "GRUPO OCTANO  S.A. DE C.V.",
	"location": {
		"lat": 19.78701,
		"long": -101.0983
	},
	"id": "137",
	"address": "Carretera Morelia Zinapecuaro No. 2",
	"estado": "MICHOACAN",
	"status": true
}, {
	"name": "GRUPO GOCALVI  S.A. DE C.V.",
	"location": {
		"lat": 31.72187,
		"long": -106.4936
	},
	"id": "138",
	"address": "Ignacio Alatorre No. 2765",
	"estado": "CHIHUAHUA",
	"status": true
}, {
	"name": "SERVICIO GENCAR  S.A. DE C.V.",
	"location": {
		"lat": 18.64379,
		"long": -91.80357
	},
	"id": "139",
	"address": "Av. Luis Donaldo Colosio No.367",
	"estado": "CAMPECHE",
	"status": true
}, {
	"name": "GRUPO EMPRESARIAL CACHANILLA  S.A. DE C.V.",
	"location": {
		"lat": 32.55968,
		"long": -115.3588
	},
	"id": "140",
	"address": "Av. Ignacio Zaragoza y Av. Cascada",
	"estado": "BAJA CALIFORMANIA NORTE",
	"status": true
}, {
	"name": "Grupo Empresarial Cachanilla  S.A. de C.V.",
	"location": {
		"lat": 32.56762,
		"long": -115.3366
	},
	"id": "141",
	"address": "Calz. Heroica Puebla No. 18",
	"estado": "BAJA CALIFORMANIA NORTE",
	"status": true
}, {
	"name": "PETROMAX  S.A. DE C.V.",
	"location": {
		"lat": 25.59815,
		"long": -103.4966
	},
	"id": "142",
	"address": "PERIFERICO TORREON-GOMEZ-LERDO KM. 4.5 S/C",
	"estado": "DURANGO",
	"status": true
}, {
	"name": "PETROMAX  S.A. DE C.V.",
	"location": {
		"lat": 19.47736,
		"long": -99.23229
	},
	"id": "143",
	"address": "VIA DR. GUSTAVO BAZ #46",
	"estado": "ESTADO DE MÉXICO",
	"status": true
}, {
	"name": "PETROMAX  S.A. DE C.V.",
	"location": {
		"lat": 25.73396,
		"long": -100.174
	},
	"id": "144",
	"address": "Av. Telefono no. 1000 esquina con Eridano",
	"estado": "NUEVO LEÓN",
	"status": true
}, {
	"name": "Petromax S.A. de C.V.",
	"location": {
		"lat": 25.7695,
		"long": -100.2729
	},
	"id": "145",
	"address": "Av. Republica Mexicana #600",
	"estado": "NUEVO LEÓN",
	"status": true
}, {
	"name": "Gas Sanfer S. de R.L. de C.V.",
	"location": {
		"lat": 19.2501,
		"long": -103.7191
	},
	"id": "146",
	"address": "Avenida San Fernando No.175",
	"estado": "COLIMA",
	"status": true
}, {
	"name": "COMBU-EXPRESS  S.A. DE C.V.",
	"location": {
		"lat": 21.49177,
		"long": -104.8626
	},
	"id": "147",
	"address": "Blvd. Luis Donaldo Colosio No. 814",
	"estado": "NAYARIT",
	"status": true
}, {
	"name": "COMBU-EXPRESS  S.A. DE C.V.",
	"location": {
		"lat": 21.49177,
		"long": -104.8626
	},
	"id": "148",
	"address": "Blvd. Luis Donaldo Colosio No. 814",
	"estado": "NAYARIT",
	"status": true
}, {
	"name": "PETROMAX  S.A. DE C.V.",
	"location": {
		"lat": 25.78546,
		"long": -100.1589
	},
	"id": "149",
	"address": "Carr. Miguel Alemán No. 1001",
	"estado": "NUEVO LEÓN",
	"status": true
}, {
	"name": "Servicio Jacarandas  S.A. de C.V.",
	"location": {
		"lat": 19.36522,
		"long": -99.01031
	},
	"id": "150",
	"address": "Carr. Texcoco-Lechería s/n",
	"estado": "CIUDAD DE MÈXICO",
	"status": true
}, {
	"name": "PETROMAX  S.A. de C.V.",
	"location": {
		"lat": 26.0824,
		"long": -98.29963
	},
	"id": "151",
	"address": "BLVD. HIDALGO No. 1313 ESQUINA CALLE  JOSE  ESCANDON",
	"estado": "TAMAULIPAS",
	"status": true
}, {
	"name": "GRUPO OCTANO  S.A. DE C.V",
	"location": {
		"lat": 20.69044,
		"long": -105.2255
	},
	"id": "152",
	"address": "Av. México 139",
	"estado": "JALISCO",
	"status": true
}, {
	"name": "MULTISERVICIOS LA PILARICA S.A. DE C.V.",
	"location": {
		"lat": 25.74497,
		"long": -109.0079
	},
	"id": "153",
	"address": "Carrt. Los Mochis-Topolobampo No.4395 Sur",
	"estado": "SINALOA",
	"status": true
}, {
	"name": "Estación de Servicio Marbella  S.A. de C.V.",
	"location": {
		"lat": 19.32571,
		"long": -99.04288
	},
	"id": "154",
	"address": "Camino a San Andrés Lote 2 No. 21",
	"estado": "CIUDAD DE MÈXICO",
	"status": true
}, {
	"name": "Petromax  S.A. de C.V.",
	"location": {
		"lat": 26.06844,
		"long": -98.33508
	},
	"id": "155",
	"address": "BLVD. HIDALGO No. 99 ESQUINA CALLE  BELLA  VISTA",
	"estado": "TAMAULIPAS",
	"status": true
}, {
	"name": "Gasolinaría Ulises  S.A. de C.V.",
	"location": {
		"lat": 19.37388,
		"long": -99.14256
	},
	"id": "156",
	"address": "Cisnes N°40 Manzana 10 Lote 13 y 14",
	"estado": "CIUDAD DE MÈXICO",
	"status": true
}, {
	"name": "ARY SUPER SERVICIOS VI  S.A. DE C.V.",
	"location": {
		"lat": 25.59694,
		"long": -103.3996
	},
	"id": "157",
	"address": "Blvd. Centenario No. 450",
	"estado": "COAHUILA",
	"status": true
}, {
	"name": "ARY SUPER SERVICIOS VI  S.A. DE C.V.",
	"location": {
		"lat": 25.59694,
		"long": -103.3996
	},
	"id": "158",
	"address": "Blvd. Centenario No. 450",
	"estado": "COAHUILA",
	"status": true
}, {
	"name": "PETROMAX  S.A. DE C.V.",
	"location": {
		"lat": 19.549,
		"long": -99.05215
	},
	"id": "159",
	"address": "AV. VIA MORELOS # 322-A.",
	"estado": "ESTADO DE MÉXICO",
	"status": true
}, {
	"name": "Estación de Servicio Cuenca S.A. de C.V.",
	"location": {
		"lat": 22.15149,
		"long": -97.511
	},
	"id": "160",
	"address": "Boulevard Adolfo López Mateos No. 206",
	"status": false
}, {
	"name": "SERVICIO CALIGAS  S. DE R.L. DE C.V.",
	"location": {
		"lat": 21.15328,
		"long": -101.6542
	},
	"id": "161",
	"address": "Blvd. Antonio Madrazo No.3701",
	"estado": "GUANAJUATO",
	"status": true
}, {
	"name": "DALROM  S.A. DE C.V.",
	"location": {
		"lat": 21.87399,
		"long": -102.2433
	},
	"id": "162",
	"address": "Av. San Gabriel No. 707",
	"estado": "AGUASCALIENTES",
	"status": true
}, {
	"name": "Petromax S.A. de C.V.",
	"location": {
		"lat": 25.79032,
		"long": -100.261
	},
	"id": "163",
	"address": "Av. Andromeda S/N",
	"estado": "NUEVO LEÓN",
	"status": true
}, {
	"name": "COMBUSTIBLES ARCOTETE  S.A. DE C.V.",
	"location": {
		"lat": 16.73731,
		"long": -92.60509
	},
	"id": "164",
	"address": "Calzada de la Quinta No.227",
	"estado": "CHIAPAS",
	"status": true
}, {
	"name": "Estación de Servicio La Rioja S.A. de C.V.",
	"location": {
		"lat": 19.49312,
		"long": -99.05216
	},
	"id": "165",
	"address": "Camino a España No. 351-A",
	"estado": "ESTADO DE MÉXICO",
	"status": true
}, {
	"name": "Estación de Servicio La Rioja S.A. de C.V.",
	"location": {
		"lat": 19.49312,
		"long": -99.05216
	},
	"id": "166",
	"address": "Camino a España No. 351-A",
	"estado": "ESTADO DE MÉXICO",
	"status": true
}, {
	"name": "SERVICIO EL TOREO DE SALTILLO S.A. DE C.V.",
	"location": {
		"lat": 25.44235,
		"long": -100.9145
	},
	"id": "167",
	"address": "Blvd. Jesús Valdes Sánchez No. 2911",
	"estado": "COAHUILA",
	"status": true
}, {
	"name": "Petromax S.A. de C.V.",
	"location": {
		"lat": 25.67924,
		"long": -100.482
	},
	"id": "168",
	"address": "Av. Manuel Ordoñez #2300",
	"estado": "NUEVO LEÓN",
	"status": true
}, {
	"name": "SERVICIO SIERRA DE ARTEAGA  S.A. DE C.V.",
	"location": {
		"lat": 25.44076,
		"long": -100.877
	},
	"id": "169",
	"address": "Blvd. Fundadores Km 8",
	"estado": "COAHUILA",
	"status": true
}, {
	"name": "DÍAZ GAS  S.A. DE C.V.",
	"location": {
		"lat": 31.7462,
		"long": -106.4253
	},
	"id": "170",
	"address": "Av. Rafael Pérez Serna No. 676",
	"estado": "CHIHUAHUA",
	"status": true
}, {
	"name": "PETROMAX  S.A. DE C.V.",
	"location": {
		"lat": 25.70877,
		"long": -100.1629
	},
	"id": "171",
	"address": "Orquidea no. 538",
	"estado": "NUEVO LEÓN",
	"status": true
}, {
	"name": "ESTACIÓN TALLERES  S. A. DE C. V.",
	"location": {
		"lat": 21.15601,
		"long": -86.88126
	},
	"id": "172",
	"address": "Mza 6  Lote 6",
	"estado": "QUINTANA ROO",
	"status": true
}, {
	"name": "Petromax S.A. de C.V.",
	"location": {
		"lat": 25.71327,
		"long": -100.3627
	},
	"id": "173",
	"address": "Av. Raul Rangel Frías #699",
	"estado": "NUEVO LEÓN",
	"status": true
}, {
	"name": "Petromax S.A. de C.V.",
	"location": {
		"lat": 25.66572,
		"long": -100.2666
	},
	"id": "174",
	"address": "Av. Chapultepec #816",
	"estado": "NUEVO LEÓN",
	"status": true
}, {
	"name": "GRUPO LONOR  S.A. DE C.V.",
	"location": {
		"lat": 15.83451,
		"long": -91.96806
	},
	"id": "175",
	"address": "Carretera Tuxtla Gutiérrez  Cd. Cuauhtémoc Km. 232+580",
	"estado": "CHIAPAS",
	"status": true
}, {
	"name": "GRUPO LONOR  S.A. DE C.V.",
	"location": {
		"lat": 15.83451,
		"long": -91.96806
	},
	"id": "176",
	"address": "Carretera Tuxtla Gutiérrez  Cd. Cuauhtémoc Km. 232+580",
	"estado": "CHIAPAS",
	"status": true
}, {
	"name": "NEOGAS  S. DE R.L. DE C.V.",
	"location": {
		"lat": 21.07689,
		"long": -101.6517
	},
	"id": "177",
	"address": "Blvd. Timoteo Lozano Oriente No.3001",
	"estado": "GUANAJUATO",
	"status": true
}, {
	"name": "GRUPO OCTANO  S.A. DE C.V.",
	"location": {
		"lat": 19.80482,
		"long": -104.2046
	},
	"id": "178",
	"address": "Av. Obregón No. 452",
	"estado": "JALISCO",
	"status": true
}, {
	"name": "GRUPO OCTANO  S.A. DE C.V",
	"location": {
		"lat": 21.49578,
		"long": -104.8833
	},
	"id": "179",
	"address": "Av. Insurgentes 1131 ote.",
	"estado": "NAYARIT",
	"status": true
}, {
	"name": "GASOLINERAS PABA S.A. DE C.V.",
	"location": {
		"lat": 24.11452,
		"long": -110.2932
	},
	"id": "180",
	"address": "Carretera a los Planes No.3650",
	"estado": "BAJA CALIFORNIA SUR",
	"status": true
}, {
	"name": "Servicio Gasol  S.A. de C.V.",
	"location": {
		"lat": 25.55824,
		"long": -103.3942
	},
	"id": "181",
	"address": "Calz. De Jesuita Agustín de Espinoza no. 1011",
	"estado": "COAHUILA",
	"status": true
}, {
	"name": "Petromax  S.A. de C.V.",
	"location": {
		"lat": 26.0218,
		"long": -98.23254
	},
	"id": "182",
	"address": "CARRETERA MONTERREY-REYNOSA ESQ. CON AVENIDA CERRO DEL MERCADO",
	"estado": "TAMAULIPAS",
	"status": true
}, {
	"name": "BECKTROP OPERADORA S.A. DE C.V.",
	"location": {
		"lat": 32.52293,
		"long": -117.0262
	},
	"id": "183",
	"address": "Blvd. Agua Caliente No. 9150",
	"estado": "BAJA CALIFORMANIA NORTE",
	"status": true
}, {
	"name": "ESTACIÓN DE AUTOSERVICIO JAHZEEL  S.A. DE C.V.",
	"location": {
		"lat": 32.49487,
		"long": -116.924
	},
	"id": "184",
	"address": "Blvd. Manuel J. Clouthier No.18378",
	"estado": "BAJA CALIFORMANIA NORTE",
	"status": true
}, {
	"name": "Estación de Servicio Venta de Carpio  S.A.de C.V.",
	"location": {
		"lat": 19.37177,
		"long": -99.00158
	},
	"id": "185",
	"address": "Carretera México - Tepexpan S/N",
	"status": false
}, {
	"name": "SERVICIOS DEL VALLE DEL FUERTE  S.A. DE C.V.",
	"location": {
		"lat": 25.4723,
		"long": -109.0433
	},
	"id": "186",
	"address": "Blvd. Centenario No. 1690 Poniente",
	"estado": "SINALOA",
	"status": true
}, {
	"name": "GASOLINERAS PABA S.A. DE C.V.",
	"location": {
		"lat": 24.14252,
		"long": -110.3138
	},
	"id": "187",
	"address": "5 de Febrero No. 1215",
	"estado": "BAJA CALIFORNIA SUR",
	"status": true
}, {
	"name": "Petromax S.A. de C.V.",
	"location": {
		"lat": 25.76271,
		"long": -100.4025
	},
	"id": "188",
	"address": "Av. Luis Donaldo Colosio #1000-1",
	"estado": "NUEVO LEÓN",
	"status": true
}, {
	"name": "ENERGÉTICOS Y SERVICIOS OCOZOCOAUTLA S.A. DE C.V.",
	"location": {
		"lat": 19.19367,
		"long": -96.1355
	},
	"id": "189",
	"address": "Carretera Huixtla Tapachula Km. 281 Mas 656",
	"estado": "VERACRUZ",
	"status": true
}, {
	"name": "Petromax S.A. de C.V.",
	"location": {
		"lat": 25.73055,
		"long": -100.2529
	},
	"id": "190",
	"address": "Av. Lopez Mateos S/N",
	"estado": "NUEVO LEÓN",
	"status": true
}, {
	"name": "APOYOS Y SUMINISTROS COMERCIALES E INDUSTRIALES  S.A. DE C.V.",
	"location": {
		"lat": 32.52644,
		"long": -117.0849
	},
	"id": "191",
	"address": "Libramiento Sur No.3000-A",
	"estado": "BAJA CALIFORMANIA NORTE",
	"status": true
}, {
	"name": "Grupo Empresarial Cachanilla  S.A. de C.V.",
	"location": {
		"lat": 32.65958,
		"long": -115.3745
	},
	"id": "192",
	"address": "Calz. Avelardo L. Rodríguez",
	"estado": "BAJA CALIFORMANIA NORTE",
	"status": true
}, {
	"name": "Grupo Empresarial Cachanilla  S.A. de C.V.",
	"location": {
		"lat": 32.5958,
		"long": -115.4326
	},
	"id": "193",
	"address": "Carretera Mexicali-San Felipe No.399",
	"estado": "BAJA CALIFORMANIA NORTE",
	"status": true
}, {
	"name": "ESTACIÓN CUCAPAH  S.A. DE C.V.",
	"location": {
		"lat": 32.51336,
		"long": -116.8797
	},
	"id": "194",
	"address": "Blvd. Matamoros No.21791",
	"estado": "BAJA CALIFORMANIA NORTE",
	"status": true
}, {
	"name": "Petromax S.A. de C.V.",
	"location": {
		"lat": 25.82103,
		"long": -100.2643
	},
	"id": "195",
	"address": "Carr. a Laredo #1600",
	"estado": "NUEVO LEÓN",
	"status": true
}, {
	"name": "ESTACIÓN GRUGAS S.A. DE R.L. DE C.V.",
	"location": {
		"lat": 32.53879,
		"long": -116.9146
	},
	"id": "196",
	"address": "Blvd. Industrial No.19272",
	"estado": "BAJA CALIFORMANIA NORTE",
	"status": true
}, {
	"name": "DISTRIBUIDORA DE COMBUSTIBLES LAS CAÑADAS S.A. DE C.V.",
	"location": {
		"lat": 16.08267,
		"long": -90.6383
	},
	"id": "197",
	"address": "Lote 1 Manzana 28 de la Zona 1",
	"estado": "CHIAPAS",
	"status": true
}, {
	"name": "SERVICIOS ENERGÉTICOS BRISAS S.A. DE C.V.",
	"location": {
		"lat": 25.48152,
		"long": -100.983
	},
	"id": "198",
	"address": "Blvd. Isidro López Zertuche No. 5851",
	"estado": "COAHUILA",
	"status": true
}, {
	"name": "Petromax S.A. de C.V.",
	"location": {
		"lat": 25.78619,
		"long": -100.3205
	},
	"id": "199",
	"address": "Av. Raul Salinas #299",
	"estado": "NUEVO LEÓN",
	"status": true
}, {
	"name": "PETRO SERVICIOS DEL SURESTE  S.A. DE C.V.",
	"location": {
		"lat": 17.59,
		"long": -90.22
	},
	"id": "200",
	"address": "Km. 8 Carretera Federal Reforma-La Isla",
	"status": false
}, {
	"name": "BECKTROP OPERADORA S.A. DE C.V.",
	"location": {
		"lat": 32.65067,
		"long": -115.472
	},
	"id": "201",
	"address": "Blvd. Gustavo DÍaz Ordaz No. 15260",
	"estado": "BAJA CALIFORMANIA NORTE",
	"status": true
}, {
	"name": "GASOLINERIA LAZARO CHANONA BORGES S.A. DE C.V.",
	"location": {
		"lat": 16.76483,
		"long": -93.38564
	},
	"id": "202",
	"address": "Libramiento Poniente  s/n",
	"estado": "CHIAPAS",
	"status": true
}, {
	"name": "Petromax S.A. de C.V.",
	"location": {
		"lat": 25.77969,
		"long": -100.318
	},
	"id": "203",
	"address": "Av. Raul Salinas Lozano #193",
	"estado": "NUEVO LEÓN",
	"status": true
}, {
	"name": "GASOLINERA NORPONIENTE  S. A. DE C. V.",
	"location": {
		"lat": 21.14857,
		"long": -86.89943
	},
	"id": "204",
	"address": "Mza. 1  Lote 5 02",
	"estado": "QUINTANA ROO",
	"status": true
}, {
	"name": "DISTRIBUIDORA DE COMBUSTIBLES LAS CAÑADAS S.A. DE C.V.",
	"location": {
		"lat": 16.50738,
		"long": -90.65546
	},
	"id": "205",
	"address": "Av. Oaxaca s/n",
	"estado": "CHIAPAS",
	"status": true
}, {
	"name": "PETROMAX  S.A. DE C.V.",
	"location": {
		"lat": 19.63215,
		"long": -99.09123
	},
	"id": "206",
	"address": "VIA JOSE LOPEZ PORTILLO S/N ESQ. EJE CARLOS PICHARDO CRUZ.",
	"estado": "ESTADO DE MÉXICO",
	"status": true
}, {
	"name": "Estación de Servicio Cantabria  S.A. de C.V.",
	"location": {
		"lat": 18.53214,
		"long": -99.11596
	},
	"id": "207",
	"address": "Av. Par Vía Jiutepec No. 44",
	"estado": "MORELOS",
	"status": true
}, {
	"name": "GRUPO OCTANO  S.A. DE C.V.",
	"location": {
		"lat": 21.02576,
		"long": -105.2636
	},
	"id": "208",
	"address": "Avenida Sol Nuevo No.1",
	"estado": "NAYARIT",
	"status": true
}, {
	"name": "Gasolinera Guasave  S. A. de C. V.",
	"location": {
		"lat": 25.56817,
		"long": -108.4668
	},
	"id": "209",
	"address": "Blvd. Alfonso G. Calderón 222",
	"estado": "SINALOA",
	"status": true
}, {
	"name": "Petromax  S.A. de C.V.",
	"location": {
		"lat": 26.08954,
		"long": -98.29264
	},
	"id": "210",
	"address": "RIBEREÑA No. 900 km",
	"estado": "TAMAULIPAS",
	"status": true
}, {
	"name": "Grupo Empresarial Cachanilla  S.A. de C.V.",
	"location": {
		"lat": 32.58866,
		"long": -115.5797
	},
	"id": "211",
	"address": "Carretera Progreso - Santa Isabel s/n",
	"estado": "BAJA CALIFORMANIA NORTE",
	"status": true
}, {
	"name": "SERVICIOS DEL VALLE DEL FUERTE  S.A. DE C.V.",
	"location": {
		"lat": 25.4735,
		"long": -109.0167
	},
	"id": "212",
	"address": "Av. Álvaro Obregón No. 1201 Poniente",
	"estado": "SINALOA",
	"status": true
}, {
	"name": "Servicio Jardines  S.A. de C.V.",
	"location": {
		"lat": 20.37882,
		"long": -90.04845
	},
	"id": "213",
	"address": "Calle 20 No. 24 x 3 y 5",
	"estado": "CAMPECHE",
	"status": true
}, {
	"name": "GASOLINERA COLÓN S.A. DE C.V.",
	"location": {
		"lat": 20.6521,
		"long": -103.3655
	},
	"id": "214",
	"address": "Av. Colón No.1870",
	"estado": "JALISCO",
	"status": true
}, {
	"name": "Petromax S.A. de C.V.",
	"location": {
		"lat": 25.69685,
		"long": -100.3576
	},
	"id": "215",
	"address": "Av. Paseo de los Leones #300",
	"estado": "NUEVO LEÓN",
	"status": true
}, {
	"name": "GRUPO OCTANO  S.A. DE C.V",
	"location": {
		"lat": 21.47476,
		"long": -104.8592
	},
	"id": "216",
	"address": "Av. Insurgentes No. 2795 Oriente",
	"estado": "NAYARIT",
	"status": true
}, {
	"name": "SERVICIOS DEL VALLE DEL FUERTE  S.A. DE C.V.",
	"location": {
		"lat": 25.44129,
		"long": -109.0493
	},
	"id": "217",
	"address": "Blvd. Poseidon No.1715 Poniente",
	"status": false
}, {
	"name": "PETROMAX  S.A. DE C.V.",
	"location": {
		"lat": 25.5017,
		"long": -100.9625
	},
	"id": "218",
	"address": "Autopista Saltillo-Monterrey #9140",
	"estado": "COAHUILA",
	"status": true
}, {
	"name": "OPERADORA LAS CRUCES S.A. DE C.V.",
	"location": {
		"lat": 28.7028,
		"long": -100.5464
	},
	"id": "219",
	"address": "Libramiento Manuel Pérez Treviño No. 300",
	"estado": "COAHUILA",
	"status": true
}, {
	"name": "Petromax  S.A. de C.V.",
	"location": {
		"lat": 28.68866,
		"long": -106.1331
	},
	"id": "220",
	"address": "Periférico de la Juventud No. 9701",
	"estado": "CHIHUAHUA",
	"status": true
}, {
	"name": "GRUPO GOCALVI  S.A. DE C.V.",
	"location": {
		"lat": 31.72134,
		"long": -106.4936
	},
	"id": "221",
	"address": "División Del Norte No.464",
	"estado": "CHIHUAHUA",
	"status": true
}, {
	"name": "El Encanto S.A. de C.V.",
	"location": {
		"lat": 32.5637,
		"long": -116.6545
	},
	"id": "222",
	"address": "Blvd. Benito Juarez No. 490",
	"estado": "BAJA CALIFORMANIA NORTE",
	"status": true
}, {
	"name": "Grupo Empresarial Cachanilla  S.A. de C.V.",
	"location": {
		"lat": 32.59633,
		"long": -115.4831
	},
	"id": "223",
	"address": "Calzada de los Monarcas #1198",
	"estado": "BAJA CALIFORMANIA NORTE",
	"status": true
}, {
	"name": "Gasolinería Turquesa   S.A. de C.V.",
	"location": {
		"lat": 19.40335,
		"long": -99.04436
	},
	"id": "224",
	"address": "Av. Canal de Castera No.72",
	"estado": "ESTADO DE MÉXICO",
	"status": true
}, {
	"name": "SERVICIOS DEL VALLE DEL FUERTE  S.A. DE C.V.",
	"location": {
		"lat": 25.48449,
		"long": -108.5944
	},
	"id": "225",
	"address": "Carret. Al Ejido 20 de Noviembre No. 1000 Ote.",
	"estado": "SINALOA",
	"status": true
}, {
	"name": "Petromax  S.A. de C.V.",
	"location": {
		"lat": 25.76352,
		"long": -100.4129
	},
	"id": "226",
	"address": "Av. Ruiz Cortines No. 9000 y 9000-1",
	"estado": "NUEVO LEÓN",
	"status": true
}, {
	"name": "ADMINISTRADORA PROFESIONAL DE GASOLINERAS DE MEXICO  S. DE R.L. DE C.V.",
	"location": {
		"lat": 32.50248,
		"long": -116.8669
	},
	"id": "227",
	"address": "Avenida de las Aguas No.23251",
	"estado": "BAJA CALIFORMANIA NORTE",
	"status": true
}, {
	"name": "GRUPO OCTANO  S.A. DE C.V",
	"location": {
		"lat": 20.95064,
		"long": -105.3484
	},
	"id": "228",
	"address": "Carretera Federal 200  Tepic -Puerto Vallarta no. 18 ote",
	"estado": "NAYARIT",
	"status": true
}, {
	"name": "MULTISERVICIOS LA PILARICA S.A. DE C.V.",
	"location": {
		"lat": 25.7086,
		"long": -108.716
	},
	"id": "229",
	"address": "Benjamín Hill No.73",
	"estado": "SINALOA",
	"status": true
}, {
	"name": "MULTISERVICIOS LA PILARICA S.A. DE C.V.",
	"location": {
		"lat": 25.7086,
		"long": -108.716
	},
	"id": "230",
	"address": "Benjamín Hill No.73",
	"estado": "SINALOA",
	"status": true
}, {
	"name": "Díaz Gas  S.A. de C.V.",
	"location": {
		"lat": 31.71913,
		"long": -106.4769
	},
	"id": "231",
	"address": "Av. Municipio Libre No. 88 y Esq. Libertad",
	"estado": "CHIHUAHUA",
	"status": true
}, {
	"name": "SUPER SERVICIO 11  S.A. DE C.V.",
	"location": {
		"lat": 32.38358,
		"long": -115.3022
	},
	"id": "232",
	"address": "Calzada H. Colegio Militar No.998",
	"estado": "BAJA CALIFORMANIA NORTE",
	"status": true
}, {
	"name": "Petromax S.A. de C.V.",
	"location": {
		"lat": 25.78732,
		"long": -100.5806
	},
	"id": "233",
	"address": "Blvd. Heberto Castillo #1000",
	"estado": "NUEVO LEÓN",
	"status": true
}, {
	"name": "GRUPO OCTANO  S.A. DE C.V.",
	"location": {
		"lat": 19.67708,
		"long": -101.2222
	},
	"id": "234",
	"address": "Periférico Paseo De La Republica No. 3755",
	"estado": "MICHOACAN",
	"status": true
}, {
	"name": "PETROMAX  S.A. de C.V.",
	"location": {
		"lat": 25.44557,
		"long": -100.8447
	},
	"id": "235",
	"address": "Blvd. Los Fundadores No. 850",
	"estado": "COAHUILA",
	"status": true
}, {
	"name": "SERVICIO PALAU  S. A. DE C. V.",
	"location": {
		"lat": 27.5322,
		"long": -101.2538
	},
	"id": "236",
	"address": "Carretera Palau - Múzquiz Km. 26 S/N",
	"estado": "COAHUILA",
	"status": true
}, {
	"name": "SERVICIO PALAU  S. A. DE C. V.",
	"location": {
		"lat": 27.5322,
		"long": -101.2538
	},
	"id": "237",
	"address": "Carretera Palau - Múzquiz Km. 26 S/N",
	"estado": "COAHUILA",
	"status": true
}, {
	"name": "ARY SUPER SERVICIOS II  S.A. DE C.V.",
	"location": {
		"lat": 25.54455,
		"long": -103.5191
	},
	"id": "238",
	"address": "Blvd. Miguel Alemán No. 1200",
	"estado": "DURANGO",
	"status": true
}, {
	"name": "ARY SUPER SERVICIOS II  S.A. DE C.V.",
	"location": {
		"lat": 25.54455,
		"long": -103.5191
	},
	"id": "239",
	"address": "Blvd. Miguel Alemán No. 1200",
	"estado": "DURANGO",
	"status": true
}, {
	"name": "GAELI DIESEL  S.A. DE C.V.",
	"location": {
		"lat": 18.65541,
		"long": -91.82954
	},
	"id": "240",
	"address": "Av. Juárez No. 245",
	"estado": "CAMPECHE",
	"status": true
}, {
	"name": "PETROMAX  S.A. DE C.V.",
	"location": {
		"lat": 19.47924,
		"long": -99.10892
	},
	"id": "241",
	"address": "Av. Vicente Villada esq. Ferrocarril Hidalgo",
	"estado": "CIUDAD DE MÈXICO",
	"status": true
}, {
	"name": "ESTACIÓN LOS ÁNGELES LIBERTAD  S.A. DE C.V.",
	"location": {
		"lat": 32.32161,
		"long": -117.0059
	},
	"id": "242",
	"address": "Aquiles Serdán No.991",
	"estado": "BAJA CALIFORMANIA NORTE",
	"status": true
}, {
	"name": "COMBUSTIBLES Y REPARACIONES DE CHIAPAS S.A. DE C.V.",
	"location": {
		"lat": 16.76728,
		"long": -93.1922
	},
	"id": "243",
	"address": "Carretera Internacional No. 6154",
	"estado": "CHIAPAS",
	"status": true
}, {
	"name": "ESTACIÓN DE SERVICIO CIMARRÓN  S. A. DE C. V.",
	"location": {
		"lat": 32.5724,
		"long": -116.6228
	},
	"id": "244",
	"address": "Portes Gil No. 64",
	"estado": "BAJA CALIFORMANIA NORTE",
	"status": true
}, {
	"name": "Petromax S.A. de C.V.",
	"location": {
		"lat": 25.75634,
		"long": -100.2963
	},
	"id": "245",
	"address": "Av. Universidad #960 esquina Bernardo Reyes",
	"estado": "NUEVO LEÓN",
	"status": true
}, {
	"name": "Gasolinería Magnolias  S.A. de C.V.",
	"location": {
		"lat": 19.22293,
		"long": -99.05445
	},
	"id": "246",
	"address": "Vialidad Principal LT1 Circuitro Fruta y Legumbres",
	"estado": "CIUDAD DE MÈXICO",
	"status": true
}, {
	"name": "OPERADORA DE COMBUSTIBLE  S.A. DE C.V.",
	"location": {
		"lat": 24.13142,
		"long": -110.2969
	},
	"id": "247",
	"address": "Blvd. 5 de Febrero No. 2990 Esquina Jaime Bravo",
	"estado": "BAJA CALIFORNIA SUR",
	"status": true
}, {
	"name": "OPERADORA DE COMBUSTIBLE  S.A. DE C.V.",
	"location": {
		"lat": 24.13142,
		"long": -110.2969
	},
	"id": "248",
	"address": "Blvd. 5 de Febrero No. 2990 Esquina Jaime Bravo",
	"estado": "BAJA CALIFORNIA SUR",
	"status": true
}, {
	"name": "Petromax  S.A. de C.V.",
	"location": {
		"lat": 26.00899,
		"long": -98.27697
	},
	"id": "249",
	"address": "CARR. A SAN FERNANDO S/N",
	"estado": "TAMAULIPAS",
	"status": true
}, {
	"name": "PETROMAX  S.A. DE C.V.",
	"location": {
		"lat": 32.51181,
		"long": -116.9098
	},
	"id": "250",
	"address": "CUCAPAH #20028",
	"estado": "BAJA CALIFORMANIA NORTE",
	"status": true
}, {
	"name": "MULTISERVICIOS LA PILARICA  S.A. DE C.V.",
	"location": {
		"lat": 25.8018,
		"long": -108.9415
	},
	"id": "251",
	"address": "Carr. Int. Mex-Nog km 1621 s/n",
	"estado": "SINALOA",
	"status": true
}, {
	"name": "COMERCIAL PETROLÍFERA  S.A. DE C.V.",
	"location": {
		"lat": 20.76171,
		"long": -105.3482
	},
	"id": "252",
	"address": "Avenida Playa De Los Picos No.96",
	"estado": "NAYARIT",
	"status": true
}, {
	"name": "PETROMAX  S.A. DE C.V.",
	"location": {
		"lat": 25.7122,
		"long": -100.2606
	},
	"id": "253",
	"address": "Av. Felix Galván #520",
	"estado": "NUEVO LEÓN",
	"status": true
}, {
	"name": "PETROMAX  S.A. DE C.V.",
	"location": {
		"lat": 25.59915,
		"long": -103.4966
	},
	"id": "254",
	"address": "PERIFERICO TORREON-GOMEZ-LERDO KM. 4.5",
	"estado": "DURANGO",
	"status": true
}, {
	"name": "PETROMAX  S.A. DE C.V.",
	"location": {
		"lat": 25.53978,
		"long": -25.53978
	},
	"id": "255",
	"address": "LOTE 1 MANZANA 2 PROLONGACION JUAREZ S/N",
	"status": false
}, {
	"name": "PETROMAX  S.A. DE C.V.",
	"location": {
		"lat": 25.73069,
		"long": -100.1627
	},
	"id": "256",
	"address": "Av. Rodhesia #501",
	"estado": "NUEVO LEÓN",
	"status": true
}, {
	"name": "SERVICIO 8 DE ENERO S.A. DE C.V.",
	"location": {
		"lat": 26.99845,
		"long": -101.4924
	},
	"id": "257",
	"address": "Carretera 30 Km 12 No. 2000",
	"estado": "COAHUILA",
	"status": true
}, {
	"name": "Gasolinera el 27 S.A. de C.V.",
	"location": {
		"lat": 23.73265,
		"long": -99.16254
	},
	"id": "258",
	"address": "Lauro Rendón Norte 112",
	"estado": "TAMAULIPAS",
	"status": true
}, {
	"name": "Petromax  S.A. de C.V.",
	"location": {
		"lat": 25.69152,
		"long": -100.1952
	},
	"id": "259",
	"address": "Blvd. Miguel de la Madrid Km. 8 Lado Sur",
	"estado": "NUEVO LEÓN",
	"status": true
}, {
	"name": "ADMINISTRADORA PROFESIONAL DE GASOLINERAS DE MÉXICO  S. DE R.L. DE C.V.",
	"location": {
		"lat": 32.39563,
		"long": -115.2912
	},
	"id": "260",
	"address": "Av. Francisco I. Madero No.600",
	"estado": "BAJA CALIFORMANIA NORTE",
	"status": true
}, {
	"name": "Petromax S.A. de C.V.",
	"location": {
		"lat": 25.67337,
		"long": -100.3923
	},
	"id": "261",
	"address": "Blvd. Díaz Ordaz #3111",
	"estado": "NUEVO LEÓN",
	"status": true
}, {
	"name": "Estación de Servicio Sauvage  S.A. de C.V.",
	"location": {
		"lat": 19.3655,
		"long": -99.01202
	},
	"id": "262",
	"address": "Carretera Lechería Texcoco S/N",
	"estado": "CIUDAD DE MÈXICO",
	"status": true
}, {
	"name": "GRUPO OCTANO  S.A. DE C.V",
	"location": {
		"lat": 19.82883,
		"long": -101.0387
	},
	"id": "263",
	"address": "Aquiles Serdán No. 31",
	"estado": "MICHOACAN",
	"status": true
}, {
	"name": "ESTACIÓN DEL ROBLE  S.A. DE C.V.",
	"location": {
		"lat": 32.43451,
		"long": -116.9525
	},
	"id": "264",
	"address": "Avenida del Roble No.14058",
	"estado": "BAJA CALIFORMANIA NORTE",
	"status": true
}, {
	"name": "Petromax S.A. de C.V.",
	"location": {
		"lat": 25.71722,
		"long": -100.2358
	},
	"id": "265",
	"address": "Av. de Las Flores #1400",
	"estado": "NUEVO LEÓN",
	"status": true
}, {
	"name": "GASOPRIM S.A. DE C.V.",
	"location": {
		"lat": 19.26947,
		"long": -103.7027
	},
	"id": "266",
	"address": "Av. Tercer Anillo Periférico No. 151",
	"estado": "COLIMA",
	"status": true
}, {
	"name": "GASOPRIM S.A. DE C.V.",
	"location": {
		"lat": 19.26947,
		"long": -103.7027
	},
	"id": "267",
	"address": "Av. Tercer Anillo Periférico No. 151",
	"estado": "COLIMA",
	"status": true
}, {
	"name": "GRUPO OCTANO  S.A. DE C.V.",
	"location": {
		"lat": 21.52027,
		"long": -104.9268
	},
	"id": "268",
	"address": "Libramiento Tepic-Mazatlán No. 48",
	"estado": "NAYARIT",
	"status": true
}, {
	"name": "MULTISERVICIOS LA PILARICA S.A. DE C.V.",
	"location": {
		"lat": 25.7681,
		"long": -109.0079
	},
	"id": "269",
	"address": "Blvd. Centenario Oriente No. 660",
	"estado": "SINALOA",
	"status": true
}, {
	"name": "Gasolinería Lomalinda 0194 S.A. de C.V.",
	"location": {
		"lat": 19.42071,
		"long": -99.21812
	},
	"id": "270",
	"address": "Paseo de la Reforma No. 1005",
	"estado": "CIUDAD DE MÈXICO",
	"status": true
}, {
	"name": "GRUPO OCTANO  S.A. DE C.V.",
	"location": {
		"lat": 20.76094,
		"long": -105.3746
	},
	"id": "271",
	"address": "Carretera La Cruz Punta De Mita Pte. No. 78",
	"estado": "NAYARIT",
	"status": true
}, {
	"name": "Petromax  S.A. de C.V.",
	"location": {
		"lat": 25.47095,
		"long": -100.9606
	},
	"id": "272",
	"address": "Blvd. Cuauthemoc No. 684",
	"estado": "COAHUILA",
	"status": true
}, {
	"name": "ENERGÉTICOS CERRO DE ORTEGA S.A. DE C.V.",
	"location": {
		"lat": 18.76145,
		"long": -103.7291
	},
	"id": "273",
	"address": "Carretera Cerro De Ortega Tecoman Kilometro Uno Más 100 s/n",
	"estado": "COLIMA",
	"status": true
}, {
	"name": "DESARROLLO INTEGRAL OCOZOCOAUTLA  S.A. DE C.V.",
	"location": {
		"lat": 15.6851,
		"long": -92.00443
	},
	"id": "274",
	"address": "Carretera Panamericana Comitán Cd. Cuauhtemoc Km. 251+100 S/N",
	"estado": "CHIAPAS",
	"status": true
}, {
	"name": "PETROMAX  S.A. DE C.V.",
	"location": {
		"lat": 25.54146,
		"long": -103.4483
	},
	"id": "275",
	"address": "AV. ALLENDE ESQ. COLON S/N SEGUNDO DE COBIAN",
	"estado": "COAHUILA",
	"status": true
}, {
	"name": "PETROLÍFEROS LA TERRITORIAL  S. DE R.L. DE C.V.",
	"location": {
		"lat": 32.56543,
		"long": -116.5848
	},
	"id": "276",
	"address": "Paseo Morelos No.920",
	"estado": "BAJA CALIFORMANIA NORTE",
	"status": true
}, {
	"name": "PETROMAX  S.A. DE C.V.",
	"location": {
		"lat": 25.7655,
		"long": -100.2573
	},
	"id": "277",
	"address": "Ma. Concepción Barragán #203",
	"estado": "NUEVO LEÓN",
	"status": true
}, {
	"name": "PETROMAX  S.A. DE C.V.",
	"location": {
		"lat": 20.54869,
		"long": -103.471
	},
	"id": "278",
	"address": "CARRETERA MEXICO - GUADALAJARA",
	"estado": "JALISCO",
	"status": true
}, {
	"name": "INMOBILIARIA URDI  S.A. DE C.V.",
	"location": {
		"lat": 32.406,
		"long": -116.9669
	},
	"id": "279",
	"address": "Paseo del Prado No.12802",
	"estado": "BAJA CALIFORMANIA NORTE",
	"status": true
}, {
	"name": "GRUPO OCTANO  S.A. DE C.V",
	"location": {
		"lat": 19.70092,
		"long": -101.1548
	},
	"id": "280",
	"address": "Periférico Nueva España No. 982",
	"estado": "MICHOACAN",
	"status": true
}, {
	"name": "GRUPO GOCALVI  S.A. DE C.V.",
	"location": {
		"lat": 31.64776,
		"long": -106.4635
	},
	"id": "281",
	"address": "Barranco Azul No.2030",
	"estado": "CHIHUAHUA",
	"status": true
}, {
	"name": "ESTACIÓN PRADO  S. A. DE C. V.",
	"location": {
		"lat": 35.3032,
		"long": -116.591
	},
	"id": "282",
	"address": "Blvd. Agua caliente No. 128-17",
	"status": false
}, {
	"name": "PETROMAX  S.A. DE C.V.",
	"location": {
		"lat": 31.79366,
		"long": -116.5931
	},
	"id": "283",
	"address": "CARR. TRANSPENINSULAR #8781",
	"estado": "BAJA CALIFORMANIA NORTE",
	"status": true
}, {
	"name": "SERVICIO EFIGAS  S. DE R.L. DE C.V.",
	"location": {
		"lat": 32.49738,
		"long": -117.0207
	},
	"id": "284",
	"address": "Blvd. Cuauhtémoc Sur No.4690",
	"estado": "BAJA CALIFORMANIA NORTE",
	"status": true
}, {
	"name": "Operadora Sta. Elena  S.A. de C.V.",
	"location": {
		"lat": 19.13321,
		"long": -99.12411
	},
	"id": "285",
	"address": "Prolongación Guadalupe Victoria No. 79",
	"estado": "CIUDAD DE MÈXICO",
	"status": true
}, {
	"name": "SERVICIOS DEL VALLE DEL FUERTE S.A DE C.V.",
	"location": {
		"lat": 25.48221,
		"long": -108.5858
	},
	"id": "286",
	"address": "Blvd. Adolfo López Mateos No. 1560 Nte",
	"estado": "SINALOA",
	"status": true
}, {
	"name": "GASOLINERA EL ENCINO S.A. DE C.V.",
	"location": {
		"lat": 28.26479,
		"long": -100.4507
	},
	"id": "287",
	"address": "Carretera 57 No.1000",
	"estado": "COAHUILA",
	"status": true
}, {
	"name": "GASOLINERA EL ENCINO S.A. DE C.V.",
	"location": {
		"lat": 28.26479,
		"long": -100.4507
	},
	"id": "288",
	"address": "Carretera 57 No.1000",
	"estado": "COAHUILA",
	"status": true
}, {
	"name": "PETROMAX  S.A. DE C.V.",
	"location": {
		"lat": 25.4561,
		"long": -100.9761
	},
	"id": "289",
	"address": "Blvd. Nazario Ortiz Garza S/N esquina Rufino Tamayo.",
	"estado": "COAHUILA",
	"status": true
}, {
	"name": "PETROMAX  S.A. DE C.V.",
	"location": {
		"lat": 25.68481,
		"long": -100.4807
	},
	"id": "290",
	"address": "Carr. Monterrey-Saltillo no. 1602",
	"estado": "NUEVO LEÓN",
	"status": true
}, {
	"name": "Grupo Empresarial Cachanilla  S.A. de C.V.",
	"location": {
		"lat": 32.58564,
		"long": -115.4363
	},
	"id": "291",
	"address": "Gral. Santiago Vidaurri y Calle Defensores de la Patria",
	"estado": "BAJA CALIFORMANIA NORTE",
	"status": true
}, {
	"name": "Servicio La Guitarra  S. A. de C. V.",
	"location": {
		"lat": 19.26288,
		"long": -99.1458
	},
	"id": "292",
	"address": "Camino Arenero MZ 110 - A LT 10155",
	"estado": "CIUDAD DE MÈXICO",
	"status": true
}, {
	"name": "ESTACIÓN DE SERVICIO SAGITARIO  S. DE R.L. DE C.V.",
	"location": {
		"lat": 32.46759,
		"long": -116.9867
	},
	"id": "293",
	"address": "Blvd. Pacífico No.8491",
	"estado": "BAJA CALIFORMANIA NORTE",
	"status": true
}, {
	"name": "Petromax S.A. de C.V.",
	"location": {
		"lat": 25.73665,
		"long": -100.2441
	},
	"id": "294",
	"address": "Av. Lopéz Mateos S/N",
	"estado": "NUEVO LEÓN",
	"status": true
}, {
	"name": "SEVEN SERVICE  S. A. DE C. V.",
	"location": {
		"lat": 19.44253,
		"long": -99.16319
	},
	"id": "295",
	"address": "Av. Ribera de San Cosme No. 114",
	"estado": "CIUDAD DE MÈXICO",
	"status": true
}, {
	"name": "SERVICIO DAINITIN  S.A. DE C.V.",
	"location": {
		"lat": 25.42705,
		"long": -100.9759
	},
	"id": "296",
	"address": "Paseo de la Reforma No. 2105",
	"estado": "COAHUILA",
	"status": true
}, {
	"name": "Servicio Calatrava S.A. de C.V.",
	"location": {
		"lat": 19.39598,
		"long": -99.08063
	},
	"id": "297",
	"address": "Av. Toluca No. 13 Esq. Camino Alamitra lote B Manzana 18.",
	"estado": "CIUDAD DE MÈXICO",
	"status": true
}, {
	"name": "GRUPO OCTANO  S.A. DE C.V",
	"location": {
		"lat": 21.50394,
		"long": -104.887
	},
	"id": "298",
	"address": "Av. Juárez No. 346 Oriente",
	"estado": "NAYARIT",
	"status": true
}, {
	"name": "GRUPO OCTANO  S.A. DE C.V",
	"location": {
		"lat": 22.0106,
		"long": -105.3788
	},
	"id": "299",
	"address": "Carretera Mexcaltitán a Tepic-Mazatlán No. 5",
	"estado": "NAYARIT",
	"status": true
}, {
	"name": "PETROMAX  S.A. DE C.V.",
	"location": {
		"lat": 32.49227,
		"long": -116.9342
	},
	"id": "300",
	"address": "BLVD MANUEL J. CLOUTHIER # 2 MANZANA 14 S/N",
	"estado": "BAJA CALIFORMANIA NORTE",
	"status": true
}, {
	"name": "PETROMAX  S.A. DE C.V.",
	"location": {
		"lat": 19.54407,
		"long": -99.20672
	},
	"id": "301",
	"address": "AV. GUSTAVO BAZ #2000",
	"estado": "ESTADO DE MÉXICO",
	"status": true
}, {
	"name": "ADMINISTRADORA PROFESIONAL DE GASOLINERAS DE MÉXICO  S. DE R.L. DE C.V.",
	"location": {
		"lat": 32.6373,
		"long": -115.4715
	},
	"id": "302",
	"address": "Calzada Anahuac No.599",
	"estado": "BAJA CALIFORMANIA NORTE",
	"status": true
}, {
	"name": "Gasolinería Rubí  S.A. de C.V.",
	"location": {
		"lat": 18.50172,
		"long": -99.13516
	},
	"id": "303",
	"address": "Plutarco Elías Calles S/N",
	"estado": "MORELOS",
	"status": true
}, {
	"name": "Operadora El Penasco S.A. de C.V. (E12522)",
	"location": {
		"lat": 32.52176,
		"long": -116.9863
	},
	"id": "304",
	"address": "Blvd. de las Americas #2560",
	"estado": "BAJA CALIFORMANIA NORTE",
	"status": true
}, {
	"name": "Petromax S.A. de C.V.",
	"location": {
		"lat": 25.76557,
		"long": -100.3985
	},
	"id": "305",
	"address": "Av. Luis Donaldo Colosio #1100",
	"estado": "NUEVO LEÓN",
	"status": true
}, {
	"name": "SERVICIOS DEL VALLE DEL FUERTE  S.A. DE C.V.",
	"location": {
		"lat": 25.46368,
		"long": -108.5979
	},
	"id": "306",
	"address": "Blvd. Marcario Gaxiola Sur No. 881",
	"estado": "SINALOA",
	"status": true
}, {
	"name": "GRUPO OCTANO  S.A. DE C.V.",
	"location": {
		"lat": 20.70551,
		"long": -103.4485
	},
	"id": "307",
	"address": "Anillo Periférico No. 4230",
	"estado": "JALISCO",
	"status": true
}, {
	"name": "Petromax  S.A. de C.V.",
	"location": {
		"lat": 25.53803,
		"long": -100.2192
	},
	"id": "308",
	"address": "Carretera Nacional Km.263 S/N",
	"estado": "NUEVO LEÓN",
	"status": true
}, {
	"name": "Petromax  S.A. de C.V.",
	"location": {
		"lat": 26.05511,
		"long": -98.32031
	},
	"id": "309",
	"address": "Blvd. Las Fuentes Esq. Con Rio Carneros",
	"estado": "TAMAULIPAS",
	"status": true
}, {
	"name": "ESTACIÓN DE SERVICIO CORCELES  S. A. DE C. V.",
	"location": {
		"lat": 19.36619,
		"long": -99.23198
	},
	"id": "310",
	"address": "Calzada de los Corceles No. 300",
	"estado": "CIUDAD DE MÈXICO",
	"status": true
}, {
	"name": "Servicio Korian  S.A. de C.V.",
	"location": {
		"lat": 24.0557,
		"long": -104.6565
	},
	"id": "311",
	"address": "Blvd. Luis Donaldo Colosio No. 919",
	"estado": "DURANGO",
	"status": true
}, {
	"name": "SERVICIO LIBRAMIENTO JLP S.A. DE C.V.",
	"location": {
		"lat": 25.44066,
		"long": -100.889
	},
	"id": "312",
	"address": "Libramiento Oscar Flores Tapia  Y Carretera 57 s/n",
	"estado": "COAHUILA",
	"status": true
}, {
	"name": "PETROMAX  S.A. DE C.V.",
	"location": {
		"lat": 25.42415,
		"long": -100.9895
	},
	"id": "313",
	"address": "Mariano Abasolo #916",
	"estado": "COAHUILA",
	"status": true
}, {
	"name": "Petromax S.A. de C.V.",
	"location": {
		"lat": 25.69773,
		"long": -100.4674
	},
	"id": "314",
	"address": "Carr. Monterrey-Villa de García #711",
	"estado": "NUEVO LEÓN",
	"status": true
}, {
	"name": "COMERCIALIZADORA DE COMBUSTIBLES DE CHIAPAS  S.A. DE C.V.",
	"location": {
		"lat": 16.80699,
		"long": -92.90897
	},
	"id": "315",
	"address": "Carre. Escopetazo-Pichucalco km. 13+255 s/n",
	"estado": "CHIAPAS",
	"status": true
}, {
	"name": "PETROMAX  S.A. DE C.V.",
	"location": {
		"lat": 26.05215,
		"long": -98.29155
	},
	"id": "316",
	"address": "Carretera Matamoros Km 91",
	"estado": "TAMAULIPAS",
	"status": true
}, {
	"name": "PETROMAX  S.A. DE C.V.",
	"location": {
		"lat": 26.05265,
		"long": -98.37717
	},
	"id": "317",
	"address": "CARRETERA REYNOSA-MONTERREY ESQUINA CON CALLE CENTRAL S/N",
	"estado": "TAMAULIPAS",
	"status": true
}, {
	"name": "Servicio Geyser  S.A. de C.V.",
	"location": {
		"lat": 19.21391,
		"long": -99.02063
	},
	"id": "318",
	"address": "Calle Francisco Villar No.19",
	"estado": "CIUDAD DE MÈXICO",
	"status": true
}, {
	"name": "Petromax S.A. de C.V.",
	"location": {
		"lat": 25.75714,
		"long": -100.2867
	},
	"id": "319",
	"address": "Porfirio Díaz S/N esquina Arturo B. de la Garza",
	"estado": "NUEVO LEÓN",
	"status": true
}, {
	"name": "PETROMAX  S.A. DE C.V.",
	"location": {
		"lat": 19.52989,
		"long": -99.17831
	},
	"id": "320",
	"address": "Av. Santa Rosa #18",
	"estado": "ESTADO DE MÉXICO",
	"status": true
}, {
	"name": "PETROMAX  S.A. DE C.V.",
	"location": {
		"lat": 25.59481,
		"long": -103.4853
	},
	"id": "321",
	"address": "BLVD. EJERCITO MEXICANO #405",
	"estado": "DURANGO",
	"status": true
}, {
	"name": "PETROMAX  S.A. de C.V.",
	"location": {
		"lat": 25.53751,
		"long": -100.9463
	},
	"id": "322",
	"address": "Blvd. Manuel Acuña No. 500",
	"estado": "COAHUILA",
	"status": true
}, {
	"name": "Petromax  S.A. de C.V.",
	"location": {
		"lat": 28.70225,
		"long": -106.1423
	},
	"id": "323",
	"address": "A. Campo del Norte No. 10145",
	"estado": "CHIHUAHUA",
	"status": true
}, {
	"name": "Petromax S.A. de C.V.",
	"location": {
		"lat": 25.68486,
		"long": -100.2727
	},
	"id": "324",
	"address": "Prol. Madero #4221",
	"estado": "NUEVO LEÓN",
	"status": true
}, {
	"name": "ARY SUPER SERVICIOS IV  S.A. DE C.V.",
	"location": {
		"lat": 25.51372,
		"long": -103.3939
	},
	"id": "325",
	"address": "Blvd. General Rodríguez Triana No. 888",
	"estado": "COAHUILA",
	"status": true
}, {
	"name": "ARY SUPER SERVICIOS IV  S.A. DE C.V.",
	"location": {
		"lat": 25.51372,
		"long": -103.3939
	},
	"id": "326",
	"address": "Blvd. General Rodríguez Triana No. 888",
	"estado": "COAHUILA",
	"status": true
}, {
	"name": "PETROMAX  S.A. DE C.V.",
	"location": {
		"lat": 20.45476,
		"long": -103.2511
	},
	"id": "327",
	"address": "CARRETERA A CAJITITLAN # 200",
	"estado": "JALISCO",
	"status": true
}, {
	"name": "Petromax S.A. de C.V.",
	"location": {
		"lat": 25.72573,
		"long": -100.3174
	},
	"id": "328",
	"address": "Av. Manuel L.Barragán #4908",
	"estado": "NUEVO LEÓN",
	"status": true
}, {
	"name": "Gasolinería Colegio Militar  S.A. de C.V.",
	"location": {
		"lat": 19.16132,
		"long": -99.09524
	},
	"id": "329",
	"address": "Autopista México Cuernavaca No. 4367",
	"estado": "CIUDAD DE MÈXICO",
	"status": true
}, {
	"name": "GRUPO OCTANO  S.A. DE C.V",
	"location": {
		"lat": 21.47976,
		"long": -104.8922
	},
	"id": "330",
	"address": "Blvd. Tepic-Xalisco No. 1958",
	"estado": "NAYARIT",
	"status": true
}, {
	"name": "SUMINISTRO Y LIMPIEZA DE AUTOBUSES  S. A. DE C. V.",
	"location": {
		"lat": 19.4812,
		"long": -99.13965
	},
	"id": "331",
	"address": "José Guadalupe López Velarde No. 45",
	"estado": "CIUDAD DE MÈXICO",
	"status": true
}, {
	"name": "GRUPO OCTANO  S.A. DE C.V",
	"location": {
		"lat": 20.69323,
		"long": -103.4528
	},
	"id": "332",
	"address": "Av. Vallarta No. 6503",
	"estado": "JALISCO",
	"status": true
}, {
	"name": "COMBUSTIBLES MB DE LA COSTA  S. A. DE C. V.",
	"location": {
		"lat": 16.21188,
		"long": -93.85754
	},
	"id": "333",
	"address": "Carretera Arriaga - Tonalá México 200 L.I.  Km. 50+600 S/N",
	"estado": "CHIAPAS",
	"status": true
}, {
	"name": "Petromax  S.A. de C.V.",
	"location": {
		"lat": 26.04117,
		"long": -98.40624
	},
	"id": "334",
	"address": "CARRETERA REYNOSA-MONTERREY KM 111",
	"estado": "TAMAULIPAS",
	"status": true
}, {
	"name": "SERVICIOS DEL VALLE DEL FUERTE  S.A. DE C.V.",
	"location": {
		"lat": 25.47383,
		"long": -108.594
	},
	"id": "335",
	"address": "Av. Francisco I. Madero Pte. No. 584",
	"estado": "SINALOA",
	"status": true
}, {
	"name": "GRUPO OCTANO  S.A. DE C.V",
	"location": {
		"lat": 20.74955,
		"long": -105.3207
	},
	"id": "336",
	"address": "Boulevard Riviera Nayarit No. 600",
	"estado": "NAYARIT",
	"status": true
}, {
	"name": "ESTACIÓN HIPÓDROMO  S.A. DE C.V.",
	"location": {
		"lat": 32.30433,
		"long": -116.5952
	},
	"id": "337",
	"address": "Blvd. Agua Caliente No.11720",
	"estado": "BAJA CALIFORMANIA NORTE",
	"status": true
}, {
	"name": "Díaz Gas  S.A. de C.V.",
	"location": {
		"lat": 31.74286,
		"long": -106.4565
	},
	"id": "338",
	"address": "Ignacio Mejía No. 317",
	"estado": "CHIHUAHUA",
	"status": true
}, {
	"name": "ESTACIÓN HIPODROMO  S.A. DE C.V.",
	"location": {
		"lat": 32.485,
		"long": -116.9419
	},
	"id": "339",
	"address": "Ave. Gustavo Díaz Ordaz No.15920",
	"estado": "BAJA CALIFORMANIA NORTE",
	"status": true
}, {
	"name": "GRUPO OCTANO  S.A. DE C.V.",
	"location": {
		"lat": 21.52509,
		"long": -104.904
	},
	"id": "340",
	"address": "Av. Ricardo Flores Magón No. 369",
	"estado": "NAYARIT",
	"status": true
}, {
	"name": "Combustibles de Otay  S.A. de C.V.",
	"location": {
		"lat": 32.54384,
		"long": -116.9308
	},
	"id": "341",
	"address": "Av. Presidente José López Portillo Pte No. 410",
	"estado": "BAJA CALIFORMANIA NORTE",
	"status": true
}, {
	"name": "GRUPO GOCALVI  S.A. DE C.V.",
	"location": {
		"lat": 31.6654,
		"long": -106.4087
	},
	"id": "342",
	"address": "Centeno No. 8175",
	"estado": "CHIHUAHUA",
	"status": true
}, {
	"name": "Petromax  S.A. de C.V.",
	"location": {
		"lat": 25.61301,
		"long": -100.8411
	},
	"id": "343",
	"address": "Carr. Saltillo-Monterrey Km. 26",
	"estado": "COAHUILA",
	"status": true
}, {
	"name": "Petromax  S.A. de C.V.",
	"location": {
		"lat": 26.08633,
		"long": -98.27109
	},
	"id": "344",
	"address": "Av. Emilio Portes Gil S/N",
	"estado": "TAMAULIPAS",
	"status": true
}, {
	"name": "Petromax S.A. de C.V.",
	"location": {
		"lat": 25.69448,
		"long": -100.4388
	},
	"id": "345",
	"address": "Autopista Monterrey-Cadereyta Km. 10 No. 1310",
	"estado": "NUEVO LEÓN",
	"status": true
}, {
	"name": "GRUPO OCTANO  S.A. DE C.V.",
	"location": {
		"lat": 20.74445,
		"long": -105.3031
	},
	"id": "346",
	"address": "Carretera Federal 200 Tepic-Puerto Vallarta Sur No. 1142",
	"estado": "NAYARIT",
	"status": true
}, {
	"name": "Díaz Gas  S.A. de C.V.",
	"location": {
		"lat": 31.64269,
		"long": -106.407
	},
	"id": "347",
	"address": "Av. Miguel De La Madrid No. 7675",
	"estado": "CHIHUAHUA",
	"status": true
}, {
	"name": "ESTACIÓN ÁMBAR  S. DE R. L. DE C. V.",
	"location": {
		"lat": 32.53773,
		"long": -116.923
	},
	"id": "348",
	"address": "Calle 4ta. Sur No. 902",
	"estado": "BAJA CALIFORMANIA NORTE",
	"status": true
}, {
	"name": "Petromax S.A. de C.V.",
	"location": {
		"lat": 25.45035,
		"long": -100.9978
	},
	"id": "349",
	"address": "Periferico Luis Echeverria #2843",
	"estado": "COAHUILA",
	"status": true
}, {
	"name": "COMERCIAL PETROLÍFERA  S.A. DE C.V.",
	"location": {
		"lat": 20.73753,
		"long": -105.271
	},
	"id": "350",
	"address": "Carretera Mezcales-San Vicente No.9",
	"estado": "NAYARIT",
	"status": true
}, {
	"name": "Petromax  S.A. de C.V.",
	"location": {
		"lat": 26.05192,
		"long": -98.37682
	},
	"id": "351",
	"address": "CARRETERA REYNOSA - MONTERREY S/N",
	"estado": "TAMAULIPAS",
	"status": true
}, {
	"name": "MULTISERVICIOS LA PILARICA S.A. DE C.V.",
	"location": {
		"lat": 25.7947,
		"long": -108.9733
	},
	"id": "352",
	"address": "Blvd. Macario Gaxiola No.1010 Norte",
	"estado": "SINALOA",
	"status": true
}, {
	"name": "ESTACIÓN DE AUTOSERVICIO JAHZEEL  S. A. DE C. V.",
	"location": {
		"lat": 32.49536,
		"long": -117.0529
	},
	"id": "353",
	"address": "Libramiento Sur No. 5004",
	"estado": "BAJA CALIFORMANIA NORTE",
	"status": true
}, {
	"name": "BECKTROP OPERADORA S.A. DE C.V.",
	"location": {
		"lat": 20.68821,
		"long": -103.4195
	},
	"id": "354",
	"address": "Av.Patria No. 574",
	"estado": "JALISCO",
	"status": true
}, {
	"name": "ESTACIÓN DE SERVICIOS GONZÁLEZ  S. A. DE C. V.",
	"location": {
		"lat": 32.39322,
		"long": -117.0558
	},
	"id": "355",
	"address": "Carretera libre Tijuana - Ensenada No. 17",
	"estado": "BAJA CALIFORMANIA NORTE",
	"status": true
}, {
	"name": "SERVICIO EFIGAS  S. DE R.L. DE C.V.",
	"location": {
		"lat": 32.52682,
		"long": -116.9489
	},
	"id": "356",
	"address": "Blvd. Lázaro Cardenas No.2539",
	"estado": "BAJA CALIFORMANIA NORTE",
	"status": true
}, {
	"name": "ESTACIÓN CINCO Y DIEZ  S.A. DE C.V.",
	"location": {
		"lat": 32.50289,
		"long": -116.9642
	},
	"id": "357",
	"address": "Calle Volcanes No.7",
	"estado": "BAJA CALIFORMANIA NORTE",
	"status": true
}, {
	"name": "GRUPO GASOLINERO ROMCAL S.A. DE C.V.",
	"location": {
		"lat": 22.63598,
		"long": -101.7065
	},
	"id": "358",
	"address": "SALINAS-SANTO DOMINGO NUM. 60",
	"estado": "SAN LUIS POTOSI",
	"status": true
}, {
	"name": "GRUPO GASOLINERO ROMCAL S.A. DE C.V.",
	"location": {
		"lat": 22.63598,
		"long": -101.7065
	},
	"id": "359",
	"address": "SALINAS-SANTO DOMINGO NUM. 60",
	"estado": "SAN LUIS POTOSI",
	"status": true
}, {
	"name": "ADMINISTRADORA PROFESIONAL DE GASOLINERAS DE MÉXICO  S. DE R.L. DE C.V.",
	"location": {
		"lat": 32.29299,
		"long": -117.015
	},
	"id": "360",
	"address": "Blvd. Fundadores No.8001",
	"estado": "BAJA CALIFORMANIA NORTE",
	"status": true
}, {
	"name": "Petromax S.A. de C.V.",
	"location": {
		"lat": 25.70403,
		"long": -100.3194
	},
	"id": "361",
	"address": "Av. Ruiz Cortines #700",
	"estado": "NUEVO LEÓN",
	"status": true
}, {
	"name": "GRUPO OCTANO  S.A. DE C.V.",
	"location": {
		"lat": 20.62722,
		"long": -105.2225
	},
	"id": "362",
	"address": "Paseo De Las Palmas No. 107",
	"estado": "JALISCO",
	"status": true
}, {
	"name": "Petromax  S.A. de C.V.",
	"location": {
		"lat": 26.04288,
		"long": -98.35048
	},
	"id": "363",
	"address": "Av. Tecnológico No. 310",
	"estado": "TAMAULIPAS",
	"status": true
}, {
	"name": "Petromax  S.A. de C.V.",
	"location": {
		"lat": 25.86456,
		"long": -97.47347
	},
	"id": "364",
	"address": "Divsión del Norte No. 39 Esq. Blvd. Internacional",
	"estado": "TAMAULIPAS",
	"status": true
}, {
	"name": "ARY SUPER SERVICIOS I  S.A. DE C.V.",
	"location": {
		"lat": 25.58075,
		"long": -103.4926
	},
	"id": "365",
	"address": "Calle 5 De Mayo Nte. No. 740",
	"estado": "DURANGO",
	"status": true
}, {
	"name": "ARY SUPER SERVICIOS I  S.A. DE C.V.",
	"location": {
		"lat": 25.58075,
		"long": -103.4926
	},
	"id": "366",
	"address": "Calle 5 De Mayo Nte. No. 740",
	"estado": "DURANGO",
	"status": true
}, {
	"name": "GASOLINERÍA EL CAPITÁN S.A. DE C.V.",
	"location": {
		"lat": 19.41548,
		"long": -99.17627
	},
	"id": "367",
	"address": "Juan Escutia No. 90",
	"estado": "CIUDAD DE MÈXICO",
	"status": true
}, {
	"name": "SUPER SERVICIO CEDROS  S.A. DE C.V.",
	"location": {
		"lat": 29.32472,
		"long": -100.9798
	},
	"id": "368",
	"address": "Calle Noche Buena No.1005",
	"estado": "COAHUILA",
	"status": true
}, {
	"name": "SUPER SERVICIO CEDROS  S.A. DE C.V.",
	"location": {
		"lat": 29.32472,
		"long": -100.9798
	},
	"id": "369",
	"address": "Calle Noche Buena No.1005",
	"estado": "COAHUILA",
	"status": true
}, {
	"name": "Petromax  S.A. de C.V.",
	"location": {
		"lat": 26.06023,
		"long": -98.31216
	},
	"id": "370",
	"address": "Calle Pekin No. 321",
	"estado": "TAMAULIPAS",
	"status": true
}, {
	"name": "HIDROCARBUROS EXPRESS OCOZOCOAUTLA  S.A. DE C.V.",
	"location": {
		"lat": 15.66693,
		"long": -92.13829
	},
	"id": "371",
	"address": "Prolongación de la Av. Central Norte s/n",
	"estado": "CHIAPAS",
	"status": true
}, {
	"name": "GRUPO GOCALVI  S.A. DE C.V.",
	"location": {
		"lat": 31.77585,
		"long": -106.5586
	},
	"id": "372",
	"address": "Rancho Anapra No. 10720",
	"estado": "CHIHUAHUA",
	"status": true
}, {
	"name": "ORBA GAS  S.A. DE C.V.",
	"location": {
		"lat": 28.70173,
		"long": -100.547
	},
	"id": "373",
	"address": "Av. Durango No. 1717",
	"estado": "COAHUILA",
	"status": true
}, {
	"name": "Grupo Empresarial Cachanilla  S.A. de C.V.",
	"location": {
		"lat": 32.62283,
		"long": -115.5103
	},
	"id": "374",
	"address": "Blvd. Lázaro Cárdenas No.2301",
	"estado": "BAJA CALIFORMANIA NORTE",
	"status": true
}, {
	"name": "Estación de Servicios Costeña  S.A. de C.V.",
	"location": {
		"lat": 19.24023,
		"long": -98.52501
	},
	"id": "375",
	"address": "Carretera San Vicente  Coatepec s/n",
	"estado": "PUEBLA",
	"status": true
}, {
	"name": "MULTISERVICIOS LA PILARICA SA DE CV",
	"location": {
		"lat": 25.80807,
		"long": -109.0236
	},
	"id": "376",
	"address": "Av. Independencia No. 3100 Poniente",
	"estado": "SINALOA",
	"status": true
}, {
	"name": "GRUPO OCTANO  S.A. DE C.V",
	"location": {
		"lat": 19.90285,
		"long": -100.7929
	},
	"id": "377",
	"address": "Autopista México Guadalajara  Lado Norte km. 201+707 S/N",
	"estado": "MICHOACAN",
	"status": true
}, {
	"name": "PETROMAX  S.A. de C.V.",
	"location": {
		"lat": 25.62543,
		"long": -100.1731
	},
	"id": "378",
	"address": "Av. Acueducto No. 801 y 803",
	"estado": "NUEVO LEÓN",
	"status": true
}, {
	"name": "Petromax S.A. de C.V.",
	"location": {
		"lat": 25.78417,
		"long": -100.2486
	},
	"id": "379",
	"address": "Av. Afganistán #1163",
	"estado": "NUEVO LEÓN",
	"status": true
}, {
	"name": "ESTACION HIPÓDROMO  S.A. DE C.V.",
	"location": {
		"lat": 32.50463,
		"long": -116.9518
	},
	"id": "380",
	"address": "Blvd. Insurgentes No.16500",
	"estado": "BAJA CALIFORMANIA NORTE",
	"status": true
}, {
	"name": "EL EDÉN GUTIÉRREZ & ARAMONI SERVICIOS S.A DE C.V.",
	"location": {
		"lat": 16.76702,
		"long": -93.31224
	},
	"id": "381",
	"address": "km 14.300 de la carretera Tuxtla Ocozocoautla s/n",
	"estado": "CHIAPAS",
	"status": true
}, {
	"name": "VILLAFLORESTA DE TIJUANA  S.A. DE C.V.",
	"location": {
		"lat": 32.47999,
		"long": -116.9371
	},
	"id": "382",
	"address": "Blvd. Díaz Ordaz No.3153",
	"estado": "BAJA CALIFORMANIA NORTE",
	"status": true
}, {
	"name": "Petromax  S.A. de C.V.",
	"location": {
		"lat": 26.0126,
		"long": -98.19553
	},
	"id": "383",
	"address": "CARRETERA FEDERAL 2 REYNOSA-RIO BRAVO ESQ. CAMINO PARCELARIO No.500",
	"estado": "TAMAULIPAS",
	"status": true
}, {
	"name": "Petromax S.A. de C.V.",
	"location": {
		"lat": 25.86023,
		"long": -100.2369
	},
	"id": "384",
	"address": "Carr. a Laredo #3364 Km. 21+176",
	"estado": "NUEVO LEÓN",
	"status": true
}, {
	"name": "SERVICIOS ENERGÉTICOS PLAZA INDUSTRIAL S.A. DE C.V.",
	"location": {
		"lat": 25.46495,
		"long": -100.9965
	},
	"id": "385",
	"address": "Blvd. Vito Alessio Robles No. 3506",
	"estado": "COAHUILA",
	"status": true
}, {
	"name": "Inmobiliaria Parque Civac  S.A. de C.V.",
	"location": {
		"lat": 18.54354,
		"long": -99.1007
	},
	"id": "386",
	"address": "Avenida Centenario sin número",
	"estado": "MORELOS",
	"status": true
}, {
	"name": "Servicio Agua Brava  S.A. de C.V.",
	"location": {
		"lat": 19.18299,
		"long": -99.08005
	},
	"id": "387",
	"address": "Calzada de Las Bombas No. 77",
	"estado": "CIUDAD DE MÈXICO",
	"status": true
}, {
	"name": "COMBU-EXPRESS  S.A. DE C.V.",
	"location": {
		"lat": 20.37667,
		"long": -102.9301
	},
	"id": "388",
	"address": "Michoacán Ote. 1",
	"estado": "JALISCO",
	"status": true
}, {
	"name": "PETROMAX  S.A. DE C.V.",
	"location": {
		"lat": 19.3807,
		"long": -99.1872
	},
	"id": "389",
	"address": "AV. REVOLUCION #775",
	"estado": "CIUDAD DE MÈXICO",
	"status": true
}, {
	"name": "GENERAL DE COMBUSTIBLES COLIMA S.A. DE C.V.",
	"location": {
		"lat": 19.12112,
		"long": -104.3397
	},
	"id": "390",
	"address": "Av. Manzanillo No.93",
	"estado": "COLIMA",
	"status": true
}, {
	"name": "OPERADORA GALFOX  S.A. DE C.V.",
	"location": {
		"lat": 28.69803,
		"long": -100.5383
	},
	"id": "391",
	"address": "Román Cepeda No. 511 Norte",
	"estado": "COAHUILA",
	"status": true
}, {
	"name": "OPERADORA GALFOX  S.A. DE C.V.",
	"location": {
		"lat": 28.69803,
		"long": -100.5383
	},
	"id": "392",
	"address": "Román Cepeda No. 511 Norte",
	"estado": "COAHUILA",
	"status": true
}, {
	"name": "PETROMAX  S.A. de C.V.",
	"location": {
		"lat": 26.07725,
		"long": -98.32557
	},
	"id": "393",
	"address": "Av México No. 103  Esquina Nogales",
	"estado": "TAMAULIPAS",
	"status": true
}, {
	"name": "ABASTECEDORA DE COMBUSTIBLES DEL SURESTE S.A. DE C.V.",
	"location": {
		"lat": 14.67288,
		"long": -92.15932
	},
	"id": "394",
	"address": "Av. Jaritas s/n",
	"estado": "CHIAPAS",
	"status": true
}, {
	"name": "Petromax S.A. de C.V.",
	"location": {
		"lat": 25.75319,
		"long": -100.2974
	},
	"id": "395",
	"address": "Av. Benito Juarez # 736",
	"estado": "NUEVO LEÓN",
	"status": true
}, {
	"name": "PETROMAX  S.A. DE C.V.",
	"location": {
		"lat": 25.6799,
		"long": -100.2657
	},
	"id": "396",
	"address": "Av. Benito Juarez #701",
	"estado": "NUEVO LEÓN",
	"status": true
}, {
	"name": "Petromax  S.A. de C.V.",
	"location": {
		"lat": 26.07019,
		"long": -98.3236
	},
	"id": "397",
	"address": "BLVD. PASEO  LOMA REAL  No. 514",
	"estado": "TAMAULIPAS",
	"status": true
}, {
	"name": "COMBUSTIBLES Y LUBRICANTES ATENAS S.A. DE C.V.",
	"location": {
		"lat": 28.72961,
		"long": -106.0956
	},
	"id": "398",
	"address": "Fedor Dostoievsky 5307",
	"estado": "CHIHUAHUA",
	"status": true
}, {
	"name": "ESTACIÓN LA VICTORIA  S. A. DE C. V.",
	"location": {
		"lat": 32.53115,
		"long": -117.0118
	},
	"id": "399",
	"address": "Blvd. Cuauhtémoc No. 296",
	"estado": "BAJA CALIFORMANIA NORTE",
	"status": true
}, {
	"name": "COMBU-EXPRESS  S.A. DE C.V.",
	"location": {
		"lat": 19.09624,
		"long": -104.3035
	},
	"id": "400",
	"address": "Avenida Elías Zamora Verduzco No. 151 A",
	"estado": "COLIMA",
	"status": true
}, {
	"name": "GRUPO 65 S.A. DE C.V.",
	"location": {
		"lat": 19.27302,
		"long": -103.7396
	},
	"id": "401",
	"address": "Carmen Serdán No.266",
	"estado": "COLIMA",
	"status": true
}, {
	"name": "JAYSEE  S.A. DE C.V.",
	"location": {
		"lat": 20.46216,
		"long": -100.0968
	},
	"id": "402",
	"address": "CUERPO \"A\" AUTOPISTA MEXICO-QUERETARO  TRAMO PALMILLAS-QUERETARO KM 175+177",
	"estado": "QUERETARO",
	"status": true
}, {
	"name": "JAYSEE  S.A. DE C.V.",
	"location": {
		"lat": 20.46216,
		"long": -100.0968
	},
	"id": "403",
	"address": "CUERPO \"A\" AUTOPISTA MEXICO-QUERETARO  TRAMO PALMILLAS-QUERETARO KM 175+177",
	"estado": "QUERETARO",
	"status": true
}, {
	"name": "INDUSTRIAS CEBRA  S.A. DE C.V.",
	"location": {
		"lat": 20.63896,
		"long": -103.3646
	},
	"id": "404",
	"address": "Av. 8 de Julio No. 2595",
	"estado": "JALISCO",
	"status": true
}, {
	"name": "Petromax S.A. de C.V.",
	"location": {
		"lat": 25.71982,
		"long": -100.3589
	},
	"id": "405",
	"address": "Av. Lincoln #4512",
	"estado": "NUEVO LEÓN",
	"status": true
}, {
	"name": "SERVICIO DAINITIN  S.A. DE C.V.",
	"location": {
		"lat": 25.42714,
		"long": -100.9668
	},
	"id": "406",
	"address": "Blvd. Fundadores No. 2820",
	"estado": "COAHUILA",
	"status": true
}, {
	"name": "Diaz Gas  S.A. de C.V.",
	"location": {
		"lat": 31.68312,
		"long": -106.4075
	},
	"id": "407",
	"address": "Av. Paseo De La Victoria No. 4420",
	"estado": "CHIHUAHUA",
	"status": true
}, {
	"name": "DIGEPE  S. A. DE C. V.",
	"location": {
		"lat": 20.90501,
		"long": -100.7242
	},
	"id": "408",
	"address": "Blvd. de la Conspiración No. 63",
	"estado": "GUANAJUATO",
	"status": true
}, {
	"name": "DIGEPE  S. A. DE C. V.",
	"location": {
		"lat": 20.90501,
		"long": -100.7242
	},
	"id": "409",
	"address": "Blvd. de la Conspiración No. 63",
	"estado": "GUANAJUATO",
	"status": true
}, {
	"name": "PETROMAX  S.A. DE C.V.",
	"location": {
		"lat": 25.67897,
		"long": -100.4388
	},
	"id": "410",
	"address": "Av. Cuauhtemoc No.237",
	"estado": "NUEVO LEÓN",
	"status": true
}, {
	"name": "PETROMAX  S.A. DE C.V.",
	"location": {
		"lat": 25.56358,
		"long": -103.4788
	},
	"id": "411",
	"address": "CALZADA LAZARO CARDENAS # 511-A Y REBOLLO ACOSTA",
	"estado": "DURANGO",
	"status": true
}, {
	"name": "PETROMAX  S.A. DE C.V.",
	"location": {
		"lat": 20.61717,
		"long": -103.2544
	},
	"id": "412",
	"address": "LAS TORRES NO. 55",
	"estado": "JALISCO",
	"status": true
}, {
	"name": "Gasolinería Veneto  S.A de C.V.",
	"location": {
		"lat": 19.39243,
		"long": -99.07214
	},
	"id": "413",
	"address": "Av. Venustiano Carranza 59",
	"estado": "CIUDAD DE MÈXICO",
	"status": true
}, {
	"name": "Petromax S.A. de C.V.",
	"location": {
		"lat": 25.49174,
		"long": -100.967
	},
	"id": "414",
	"address": "Blvd. Venustiano Carranza S/N",
	"estado": "COAHUILA",
	"status": true
}, {
	"name": "Petromax S.A. de C.V.",
	"location": {
		"lat": 25.38983,
		"long": -101.0208
	},
	"id": "415",
	"address": "Calzada Antonio Narro #3370",
	"estado": "COAHUILA",
	"status": true
}, {
	"name": "PETROMAX  S.A. DE C.V.",
	"location": {
		"lat": 20.61087,
		"long": -103.4194
	},
	"id": "416",
	"address": "PERIFERICO SUR#8745",
	"estado": "JALISCO",
	"status": true
}, {
	"name": "SERVICIO MUZQUIZ  S.A.",
	"location": {
		"lat": 27.89302,
		"long": -101.5306
	},
	"id": "417",
	"address": "Carretera Muzquiz - Boquillas No. 100 Norte",
	"estado": "COAHUILA",
	"status": true
}, {
	"name": "SERVICIO MUZQUIZ  S.A.",
	"location": {
		"lat": 27.89302,
		"long": -101.5306
	},
	"id": "418",
	"address": "Carretera Muzquiz - Boquillas No. 100 Norte",
	"estado": "COAHUILA",
	"status": true
}, {
	"name": "DIGEPE  S. A. DE C. V.",
	"location": {
		"lat": 21.01259,
		"long": -100.6527
	},
	"id": "419",
	"address": "Carretera San Miguel de Allende - Los Rodríguez Km. 17",
	"estado": "GUANAJUATO",
	"status": true
}, {
	"name": "DIGEPE  S. A. DE C. V.",
	"location": {
		"lat": 21.01259,
		"long": -100.6527
	},
	"id": "420",
	"address": "Carretera San Miguel de Allende - Los Rodríguez Km. 17",
	"estado": "GUANAJUATO",
	"status": true
}, {
	"name": "PETROMAX  S.A. DE C.V.",
	"location": {
		"lat": 19.63078,
		"long": -99.16551
	},
	"id": "421",
	"address": "TULTITLAN PONIENTE ESQ. INDEPENDENCIA",
	"estado": "ESTADO DE MÉXICO",
	"status": true
}, {
	"name": "Petromax S.A. de C.V.",
	"location": {
		"lat": 25.75868,
		"long": -100.1727
	},
	"id": "422",
	"address": "Av. Luis Donaldo Colosio #100",
	"estado": "NUEVO LEÓN",
	"status": true
}, {
	"name": "Servicio Casal de Durango  S. A. de C. V.",
	"location": {
		"lat": 24.43465,
		"long": -104.6987
	},
	"id": "423",
	"address": "Carretera Durango - H. del Parral Km. 54+869.6",
	"estado": "DURANGO",
	"status": true
}, {
	"name": "Fuente de Carga Frigga  S.A. de C.V.",
	"location": {
		"lat": 19.24275,
		"long": -99.16344
	},
	"id": "424",
	"address": "Av. Palo Solo No. 105 Lt. A",
	"estado": "CIUDAD DE MÈXICO",
	"status": true
}, {
	"name": "PETROMAX  S.A. DE C.V.",
	"location": {
		"lat": 19.56635,
		"long": -99.24184
	},
	"id": "425",
	"address": "Calzada San Mateo#42",
	"estado": "ESTADO DE MÉXICO",
	"status": true
}, {
	"name": "PROMOTORA DE SERVICIOS OCOZOCOAUTLA  S.A. DE C.V.",
	"location": {
		"lat": 16.76795,
		"long": -93.29473
	},
	"id": "426",
	"address": "Carretera Ocozocoautla Km 132 Más 700",
	"estado": "CHIAPAS",
	"status": true
}, {
	"name": "Servicio Campana  S.A. de C.V.",
	"location": {
		"lat": 19.3168,
		"long": -99.12743
	},
	"id": "427",
	"address": "Av. Canal de Miramontes 2727",
	"estado": "CIUDAD DE MÈXICO",
	"status": true
}, {
	"name": "GRUPO OCTANO  S.A. DE C.V",
	"location": {
		"lat": 19.96016,
		"long": -101.1365
	},
	"id": "428",
	"address": "Carretera Morelia-Salamanca Km. 32.5",
	"estado": "MICHOACAN",
	"status": true
}, {
	"name": "SERVICIOS DEL VALLE DEL FUERTE  S.A. DE C.V.",
	"location": {
		"lat": 25.46346,
		"long": -109.1195
	},
	"id": "429",
	"address": "Blvd. Pedro Anaya No. 1655 Pte.",
	"status": false
}, {
	"name": "Petromax S.A. de C.V.",
	"location": {
		"lat": 25.76537,
		"long": -100.2889
	},
	"id": "430",
	"address": "Arturo B. de la Garza S/N",
	"estado": "NUEVO LEÓN",
	"status": true
}, {
	"name": "ESTACIÓN RAEL  S. DE R.L. DE C.V.",
	"location": {
		"lat": 32.3534,
		"long": -115.3321
	},
	"id": "431",
	"address": "Carretera Mexicali-Tijuana Km 4.5",
	"estado": "BAJA CALIFORMANIA NORTE",
	"status": true
}, {
	"name": "Servicio Granada  S.A. de C.V.",
	"location": {
		"lat": 19.38232,
		"long": -99.04328
	},
	"id": "432",
	"address": "Malaquias Huitrón No. 39/41 Manzana Z1 Lote 4",
	"estado": "CIUDAD DE MÈXICO",
	"status": true
}, {
	"name": "PETROMAX  S.A. DE C.V.",
	"location": {
		"lat": 28.66146,
		"long": -106.0862
	},
	"id": "433",
	"address": "Av. Tecnológico #2901",
	"estado": "CHIHUAHUA",
	"status": true
}, {
	"name": "PETROMAX  S.A. DE C.V.",
	"location": {
		"lat": 25.45432,
		"long": -101.0068
	},
	"id": "434",
	"address": "Periférico Luis Echeverría no. 1824",
	"estado": "COAHUILA",
	"status": true
}, {
	"name": "CORPORATIVO ARPE  S.A. DE C.V.",
	"location": {
		"lat": 28.71927,
		"long": -106.1483
	},
	"id": "435",
	"address": "Circuito Universitario No. 15506",
	"estado": "CHIHUAHUA",
	"status": true
}, {
	"name": "Petromax S.A. de C.V.",
	"location": {
		"lat": 25.66975,
		"long": -100.3698
	},
	"id": "436",
	"address": "Blvd. Constitución #900",
	"estado": "NUEVO LEÓN",
	"status": true
}, {
	"name": "SERVICIO ROMALSA S.A. DE C.V.",
	"location": {
		"lat": 21.84296,
		"long": -102.7334
	},
	"id": "437",
	"address": "Prolongación  5 De Mayo No.  1202",
	"estado": "AGUASCALIENTES",
	"status": true
}, {
	"name": "JG ESTACIONES DE SERVICIO  S.A. DE C.V.",
	"location": {
		"lat": 32.40905,
		"long": -117.0478
	},
	"id": "438",
	"address": "Carretera Libre Tijuana-Ensenada Km. 16.5 No. 13740",
	"estado": "BAJA CALIFORMANIA NORTE",
	"status": true
}, {
	"name": "Petromax S.A. de C.V.",
	"location": {
		"lat": 25.69296,
		"long": -100.5099
	},
	"id": "439",
	"address": "Carr. Monterrey-Saltillo #3937 Km. 63 Carril Norte",
	"estado": "NUEVO LEÓN",
	"status": true
}, {
	"name": "SERVICIO ROSA  S. A. DE C. V.",
	"location": {
		"lat": 31.84799,
		"long": -116.5914
	},
	"id": "440",
	"address": "Av. Esmeralda No. 992",
	"estado": "BAJA CALIFORMANIA NORTE",
	"status": true
}, {
	"name": "SERVICIO ROSA  S. A. DE C. V.",
	"location": {
		"lat": 31.84799,
		"long": -116.5914
	},
	"id": "441",
	"address": "Av. Esmeralda No. 992",
	"estado": "BAJA CALIFORMANIA NORTE",
	"status": true
}, {
	"name": "HIDROCARBUROS EPAZOYUCAN S. A. DE C. V.",
	"location": {
		"lat": 20.01408,
		"long": -98.63857
	},
	"id": "442",
	"address": "Av. Hidalgo No. 64",
	"estado": "HIDALGO",
	"status": true
}, {
	"name": "HIDROCARBUROS EPAZOYUCAN S. A. DE C. V.",
	"location": {
		"lat": 20.01408,
		"long": -98.63857
	},
	"id": "443",
	"address": "Av. Hidalgo No. 64",
	"estado": "HIDALGO",
	"status": true
}, {
	"name": "Petromax S.A. de C.V.",
	"location": {
		"lat": 25.66753,
		"long": -100.3206
	},
	"id": "444",
	"address": "Av. Pino Suarez #932 Sur",
	"estado": "NUEVO LEÓN",
	"status": true
}, {
	"name": "PETROMAX  S.A. DE C.V.",
	"location": {
		"lat": 25.26538,
		"long": -101.091
	},
	"id": "445",
	"address": "Carretera a Zacatecas Km. 18.5 S/N",
	"estado": "COAHUILA",
	"status": true
}, {
	"name": "Petromax  S.A. de C.V.",
	"location": {
		"lat": 25.98757,
		"long": -98.27427
	},
	"id": "446",
	"address": "CARRETERA A SAN FERNANDO ESQ. CON CAMINO A LA RETAMA KM.108.2",
	"estado": "TAMAULIPAS",
	"status": true
}, {
	"name": "Petromax S.A. de C.V.",
	"location": {
		"lat": 25.85596,
		"long": -100.2397
	},
	"id": "447",
	"address": "Carretera a Laredo Km. 20 Sin",
	"estado": "NUEVO LEÓN",
	"status": true
}, {
	"name": "SERVICIOS DEL VALLE DEL FUERTE  S.A. DE C.V.",
	"location": {
		"lat": 25.4645,
		"long": -109.0273
	},
	"id": "448",
	"address": "Prolg. Blvd. Antonio Rosales No.1649 Sur",
	"estado": "SINALOA",
	"status": true
}, {
	"name": "PETROMAX  S.A. DE C.V.",
	"location": {
		"lat": 32.36532,
		"long": -117.0594
	},
	"id": "449",
	"address": "BLVD. BENITO JUAREZ  No. 350",
	"estado": "BAJA CALIFORMANIA NORTE",
	"status": true
}, {
	"name": "PETROMAX  S.A. DE C.V.",
	"location": {
		"lat": 25.60685,
		"long": -100.2685
	},
	"id": "450",
	"address": "Av. Eugenio Garza Sada No. 139",
	"estado": "NUEVO LEÓN",
	"status": true
}, {
	"name": "MULTISERVICIOS LA PILARICA S.A. DE C.V.",
	"location": {
		"lat": 25.79967,
		"long": -108.9427
	},
	"id": "451",
	"address": "Carretera Internacional México-Nogales km. 1621",
	"estado": "SINALOA",
	"status": true
}, {
	"name": "RAMCAL  S.A. DE C.V.",
	"location": {
		"lat": 19.0386,
		"long": -104.2581
	},
	"id": "452",
	"address": "Autopista Manzanillo Colima No. 4000",
	"estado": "COLIMA",
	"status": true
}, {
	"name": "PETROMAX  S.A. DE C.V.",
	"location": {
		"lat": 20.62036,
		"long": -103.2741
	},
	"id": "453",
	"address": "AUTOPISTA GUADALAJARA-ZAPOTLANEJO S/N",
	"estado": "JALISCO",
	"status": true
}, {
	"name": "PETROMAX  S.A. de C.V.",
	"location": {
		"lat": 25.49545,
		"long": -100.1888
	},
	"id": "454",
	"address": "Carretera Nacional No.120",
	"estado": "NUEVO LEÓN",
	"status": true
}, {
	"name": "SERVICIO MARTÍN S.A. DE C.V.",
	"location": {
		"lat": 21.88905,
		"long": -102.289
	},
	"id": "455",
	"address": "General Miguel Barragán No.457 Y 459",
	"estado": "AGUASCALIENTES",
	"status": true
}, {
	"name": "MULTISERVICIOS LA PILARICA S.A. DE C.V.",
	"location": {
		"lat": 25.76678,
		"long": -108.9928
	},
	"id": "456",
	"address": "Av. Agustina Ramírez No.820 Oriente",
	"estado": "SINALOA",
	"status": true
}, {
	"name": "Petromax S.A. de C.V.",
	"location": {
		"lat": 25.66544,
		"long": -100.4598
	},
	"id": "457",
	"address": "Los Garza #120",
	"estado": "NUEVO LEÓN",
	"status": true
}, {
	"name": "Petromax  S.A. de C.V.",
	"location": {
		"lat": 26.09189,
		"long": -98.29042
	},
	"id": "458",
	"address": "LIB. LUIS ECHEVERRIA ESQ BLVD. FERROCARRIL #601",
	"estado": "TAMAULIPAS",
	"status": true
}, {
	"name": "DALCON S.A DE C.V.",
	"location": {
		"lat": 21.85209,
		"long": -102.2705
	},
	"id": "459",
	"address": "Blvd. Siglo XXI No. 101",
	"estado": "AGUASCALIENTES",
	"status": true
}, {
	"name": "GRUPO OCTANO  S.A. DE C.V.",
	"location": {
		"lat": 20.71044,
		"long": -105.2759
	},
	"id": "460",
	"address": "Av Tepic No 1508 sur",
	"estado": "NAYARIT",
	"status": true
}, {
	"name": "SERVICIO VILLAS DEL PILAR S.A. DE C.V.",
	"location": {
		"lat": 21.84497,
		"long": -102.3077
	},
	"id": "461",
	"address": "Avenida Siglo XXI No. 3242",
	"estado": "AGUASCALIENTES",
	"status": true
}, {
	"name": "Gasolinería Mallorca S.A. de C.V.",
	"location": {
		"lat": 19.15275,
		"long": -99.01175
	},
	"id": "462",
	"address": "Av. Aquiles Serdán No. 238",
	"estado": "CIUDAD DE MÈXICO",
	"status": true
}, {
	"name": "LATANST S.A. DE C.V.",
	"location": {
		"lat": 20.2175,
		"long": -98.9109
	},
	"id": "463",
	"address": "Carretera México-Laredo km 112 s/n",
	"estado": "HIDALGO",
	"status": true
}, {
	"name": "LATANST S.A. DE C.V.",
	"location": {
		"lat": 20.2175,
		"long": -98.9109
	},
	"id": "464",
	"address": "Carretera México-Laredo km 112 s/n",
	"estado": "HIDALGO",
	"status": true
}, {
	"name": "Tultiestación  S.A. de C.V.",
	"location": {
		"lat": 19.38249,
		"long": -99.08085
	},
	"id": "465",
	"address": "Av. Mexiquense s/n",
	"estado": "CIUDAD DE MÈXICO",
	"status": true
}, {
	"name": "Petromax S.A. de C.V.",
	"location": {
		"lat": 25.73644,
		"long": -100.2871
	},
	"id": "466",
	"address": "Av. Periferico #201 esq. Republica Mexicana",
	"estado": "NUEVO LEÓN",
	"status": true
}, {
	"name": "Petromax  S.A. de C.V.",
	"location": {
		"lat": 26.07315,
		"long": -98.29407
	},
	"id": "467",
	"address": "AVE. PRAXEDIS BALBOA S/N",
	"estado": "TAMAULIPAS",
	"status": true
}, {
	"name": "SERVICIO SANTA FE  S. A. DE C. V.",
	"location": {
		"lat": 24.03347,
		"long": -103.2822
	},
	"id": "468",
	"address": "Boulevard Francisco Villa y Av. De la juventud S/N",
	"estado": "ZACATECAS",
	"status": true
}, {
	"name": "Gasolinería Cúpula  S.A. de C.V.",
	"location": {
		"lat": 19.34168,
		"long": -99.03069
	},
	"id": "469",
	"address": "Autopista México Pachuca Kilómetro 18+848",
	"estado": "CIUDAD DE MÈXICO",
	"status": true
}, {
	"name": "Autoservicio La Otra  S. A. de C. V.",
	"location": {
		"lat": 29.55164,
		"long": -104.4192
	},
	"id": "470",
	"address": "Blvd. Libre Comercio No. 1300",
	"estado": "CHIHUAHUA",
	"status": true
}, {
	"name": "PETROMAX  S.A. DE C.V.",
	"location": {
		"lat": 25.75248,
		"long": -100.1986
	},
	"id": "471",
	"address": "Av. Miguel Alemán #1000",
	"estado": "NUEVO LEÓN",
	"status": true
}, {
	"name": "Petromax S.A. de C.V.",
	"location": {
		"lat": 25.7086,
		"long": -100.2767
	},
	"id": "472",
	"address": "Av. Nogalar #2908 esq. Av. Los Angeles",
	"estado": "NUEVO LEÓN",
	"status": true
}, {
	"name": "Estación de Servicio Rancho Verde S.A. de C.V.",
	"location": {
		"lat": 19.34007,
		"long": -99.02401
	},
	"id": "473",
	"address": "Vía Morelos sin número",
	"estado": "CIUDAD DE MÈXICO",
	"status": true
}, {
	"name": "SERVICIO LOS OLIVOS S.A. DE C.V.",
	"location": {
		"lat": 31.8639,
		"long": -116.5824
	},
	"id": "474",
	"address": "Libramiento sur 1113",
	"estado": "BAJA CALIFORMANIA NORTE",
	"status": true
}, {
	"name": "SERVICIO LOS OLIVOS S.A. DE C.V.",
	"location": {
		"lat": 31.8639,
		"long": -116.5824
	},
	"id": "475",
	"address": "Libramiento sur 1113",
	"estado": "BAJA CALIFORMANIA NORTE",
	"status": true
}, {
	"name": "Petromax S.A. de C.V.",
	"location": {
		"lat": 25.71041,
		"long": -100.2635
	},